pincode,city,district,state,lat,lng
110001,Patiala House SO,New Delhi,Delhi,28.2348611,77.2348611
110002,IPEstate SO,Central,Delhi,28.6274167,77.2435833
110003,Kasturba Nagar SO South Delhi,South East,Delhi,28.576544,77.224654
110004,Rashtrapati Bhawan SO,New Delhi,Delhi,28.6210833,77.1961389
110005,Bank Street SO Central Delhi,Central,Delhi,22.0,77.0
110006,Delhi GPO,Central,Delhi,28.635313,77.224955
110007,RCAO SO,North,Delhi,28.629917,77.239895
110008,Patel Nagar SO Central Delhi,West,Delhi,28.6225833,77.2127222
110009,Gujranwala Colony SO,North West,Delhi,28.6955833,77.1901111
110010,Aps Colony BO,New Delhi,Delhi,28.57,77.13
110011,Nirman Bhawan SO,New Delhi,Delhi,28.6108611,77.2148611
110012,Inderpuri SO,West,Delhi,28.6320278,77.1484167
110013,Hazrat Nizamuddin SO,South,Delhi,28.58775,77.2505833
110014,Hari Nagar Ashram SO,South East,Delhi,28.57,77.26
110015,Mansarover Garden S.O,West,Delhi,28.6485278,77.1365
110016,Technology Bhawan SO,South,Delhi,28.5373056,77.1907222
110017,South Malviya Nagar SO,South,Delhi,28.522982,77.214514
110018,Chaukhandi B.O,West,Delhi,24.867183,67.273615
110019,Alaknanda SO,South East,Delhi,28.5256389,77.2541667
110020,Tehkhand BO,South,Delhi,28.52,77.29
110021,Anand Niketan SO,New Delhi,Delhi,28.5787222,77.1648889
110022,R K Puram Sect4 SO,New Delhi,Delhi,28.555,77.1810278
110023,Kidwai Nagar West SO,New Delhi,Delhi,28.5712778,77.2051667
110024,Lajpat Nagar South Delhi SO,South,Delhi,28.5381667,77.2150278
110025,Abul Fazal EnclaveI SO,Budaun,Uttar Pradesh,28.5425556,77.2931667
110026,Punjabi Bagh Sec   III S.O,West,Delhi,28.6198611,77.0975833
110027,Subhash Nagar West S.O,West,Delhi,28.6371111,77.1098889
110028,Naraina Village S.O,New Delhi,Delhi,28.6305,77.1349167
110029,Ansari Nagar SO,South,Delhi,28.5649167,77.2068056
110030,Paryavaran Complex SO,South,Delhi,28.5174444,77.2055278
110031,Geeta Colony SO,Shahdara,Delhi,28.653,77.2741667
110032,Bhola Nath Nagar SO,Shahdara,Delhi,28.6546944,77.2973611
110033,NSMandi SO,North,Delhi,28.7126944,77.1733333
110034,Sri Nagar Colony SO,North West,Delhi,28.6819167,77.1366667
110035,Sarai Rohilla SO,North West,Delhi,28.6694167,77.1763889
110036,Kadipur BO,North,Delhi,28.7978055,77.13
110037,Nangal Dewat BO,New Delhi,Delhi,28.5302777,77.1155277
110038,A F Rajokari SO,New Delhi,Delhi,28.5193889,77.1498056
110039,Pooth Khurd BO,North,Delhi,28.7996944,77.0380555
110040,NARELA TOWN,North,Delhi,28.84,77.08
110041,Nilothi B.O,West,Delhi,28.651181,77.059325
110042,Pehlad Pur BO,North,Delhi,28.72775,77.1636111
110043,Khaira B.O,South West,Delhi,24.871535,86.207106
110044,Pul Pahladpur BO,South,Delhi,28.5,77.3
110045,Indira Park B.O,South West,Delhi,17.413655,78.483833
110046,Sagarpur S.O,New Delhi,Delhi,28.6110556,77.1029167
110047,Mandi BO,South,Delhi,28.44,77.14
110048,Greater Kailash SO,South,Delhi,28.5376667,77.2381389
110049,Sahpurjat BO,South,Delhi,28.55,77.21
110051,Govind Pura SO,East,Delhi,28.6453611,77.2871111
110052,Shastri Nagar SO North West Delhi,North,Delhi,28.670081,77.18125
110053,Garhi Mandu BO,North East,Delhi,28.38,77.12
110054,Civil Lines SO North Delhi,Central,Delhi,28.6624167,77.2348333
110055,SRT NAGAR EXTENSION COUNTER,Central,Delhi,28.6123,77.17
110056,Shakur Basti Depot SO,North West,Delhi,28.6827222,77.1111111
110057,Vasant Vihar2 SO,New Delhi,Delhi,28.5578889,77.15575
110058,D.E.S.U. Colony S.O,West,Delhi,28.6115,77.0970833
110059,Matiala B.O,West,Delhi,28.609409,77.054325
110060,Rajender Nagar SO,Central,Delhi,28.6367222,77.1831111
110061,Bijwasan SO,South West,Delhi,28.5331111,77.5193889
110062,Hamdard Nagar SO,South,Delhi,28.5125556,77.2510556
110063,Paschim Vihar B Block S.O,West,Delhi,28.66325,77.1088056
110064,Mayapuri Shopping Centre S.O,West,Delhi,28.614756,71.11292
110065,Sant Nagar SO South Delhi,South East,Delhi,28.554003,77.24903
110066,R K Puram Main SO,New Delhi,Delhi,28.5598056,77.1765278
110067,JNU New Campus SO,New Delhi,Delhi,28.5393611,77.1635
110068,Ignou SO,South,Delhi,28.5012222,77.2003056
110069,Union Public Service Commission SO,New Delhi,Delhi,28.6225833,77.2127222
110070,Vasant Kunj PktA SO,New Delhi,Delhi,28.5139722,77.1655
110071,Badusarai B.O,South West,Delhi,28.529595,76.986468
110072,CRPF Jharoda Kalan S.O,South West,Delhi,28.6359167,77.9605833
110073,Jafarpur B.O,South West,Delhi,22.321388,88.248552
110074,Chandanhoola BO,South,Delhi,28.45,77.18
110075,Amberhai B.O,South West,Delhi,28.578231,77.04961
110076,Ali BO,South,Delhi,28.52,77.31
110077,Barthal B.O,South West,Delhi,28.542804,77.049144
110078,Kakrola B.O,South West,Delhi,28.598435,77.022021
110080,Sangam Vihar SO,South,Delhi,28.5,77.24
110081,H S School,North West,Delhi,28.734916,77.005555
110082,Khera Khurd BO,North,Delhi,28.7721666,77.119
110083,Mangolpuri S Block SO,North West,Delhi,28.6904722,77.0822778
110084,Wazirabad Village SO,Central,Delhi,28.722239,77.221819
110085,Rithala BO,North West,Delhi,28.6933611,77.1713889
110086,Sultanpuri F Block SO,North West,Delhi,28.6900278,77.0685833
110087,Sunder Vihar S.O,West,Delhi,28.6663889,77.0881667
110088,Shalamar BO,North,Delhi,28.6933611,77.1713889
110089,Rohini Sector 15 extension So,North West,Delhi,28.7348055,77.1325
110090,Shriram Colony Rajeev Nagar SO,North East,Delhi,28.6739166,77.3198333
110091,Himmatpuri SO,East,Delhi,28.6053889,77.3073333
110092,Shakarpur SO,East,Delhi,28.627,77.2850278
110093,Sunder Nagari SO,North East,Delhi,28.6739166,77.3198333
110094,Dayalpur BO,North East,Delhi,28.69225,77.3042222
110095,Vishwakarma Nagar SO,Shahdara,Delhi,28.6721111,77.3069722
110096,Mayur Vihar PhIII SO,East,Delhi,28.6086389,77.3364167
110097,Kapashera SO,South West,Delhi,28.5249456,77.0710038
110099,ROHINI SECTOR 23 SO,North West,Delhi,28.720596,77.080909
110110,"Nodal Delivery Centre(Parcel), Rohini",North West,Delhi,28.7158,77.11
121001,Nh2 Faridabad SO,Faridabad,Haryana,28.1281944,77.8165
121002,Faridabad Sector 16a  SO,Faridabad,Haryana,28.3917778,77.3021389
121003,Gurukul Indraprashtha BO,Faridabad,Haryana,28.359866,77.359719
121004,Baroli BO,Faridabad,Haryana,24.95972,75.593164
121005,Jawahar Colony Faridabad SO,Faridabad,Haryana,28.3696111,77.2866389
121006,Faridabad Sector 8 SO,Faridabad,Haryana,28.3574444,77.3336389
121007,Escortsnagar Faridabad SO,Faridabad,Haryana,28.3832778,77.3258889
121008,Faridabad Sector 29 SO,Faridabad,Haryana,28.3917778,77.3021389
121009,Surajkund Faridabad SO,Faridabad,Haryana,28.4881111,77.2945833
121010,SECTOR46,Faridabad,Haryana,28.4391,77.3009
121012,Sector21D  SO,Faridabad,Haryana,28.3917778,77.3021389
121013,Sec91 SO,Faridabad,Haryana,28.3917778,77.3021389
121014,Greater Faridabad PO,Faridabad,Haryana,28.4726,77.4848
121015,Sector55 PO,Faridabad,Haryana,28.3453,77.2965
121101,Chandpur BO,Faridabad,Haryana,23.2551315,90.851785
121102,Amroli BO,Palwal,Haryana,21.246806,75.851243
121103,Uttawar BO,Palwal,Haryana,27.982955,77.188775
121105,Manpur BO,Palwal,Haryana,27.384294,30.747771
121106,Hodal SO,Palwal,Haryana,27.8942222,77.3709444
121107,Likhi BO,Palwal,Haryana,23.70691,73.022817
122001,Mini Sectt SO,Gurugram,Haryana,28.4486944,77.0293056
122002,DLF QE SO,Gurugram,Haryana,28.466093,77.1058349
122003,Jharsa BO,Gurugram,Haryana,28.4465007,77.073616
122004,Narsinghpur SO,Gurugram,Haryana,28.4134444,76.9918056
122005,Air Force SO,Gurugram,Haryana,28.5056111,77.0710556
122006,Railwary Road SO,Gurugram,Haryana,28.4227222,77.1031389
122007,Industrial Estate SO Gurgaon,Gurugram,Haryana,28.462,77.0316389
122008,DLF PhII SO,Gurugram,Haryana,28.462,77.0316389
122009,Galleria DLFIV SO,Gurugram,Haryana,28.3408889,76.7561944
122010,DLF PhIII SO,Gurugram,Haryana,28.466093,77.1058349
122011,Gurgaon Sector 56 SO,Gurugram,Haryana,28.462,77.0316389
122012,Vatika India Sec 82 SO,Gurugram,Haryana,28.413887,76.9931945
122015,Palam Road SO,Gurugram,Haryana,28.4973611,77.0630556
122016,Industrial Complex Dundahera SO,Gurugram,Haryana,28.4965833,77.0852778
122017,Palam Vihar SO Gurgaon,Gurugram,Haryana,28.462,77.0316389
122018,Gurgaon South City II SO,Gurugram,Haryana,28.462,77.0316389
122051,Nsg Camp Manesar SO,Gurugram,Haryana,28.342,76.9365278
122052,IMT Manesar SO,Gurugram,Haryana,28.342,76.9364722
122098,CRPF Kadarpur SO,Gurugram,Haryana,28.3913822,77.0511932
122101,Teekli BO,Gurugram,Haryana,28.3913822,77.0511932
122102,Bhondsi SO,Gurugram,Haryana,28.3168333,77.0620833
122103,Ghasera BO,Gurugram,Haryana,28.248459,77.065802
122104,Ferozepur Jhirka SO,Nuh,Haryana,27.7781944,76.9451944
122105,Goyla BO,Nuh,Haryana,28.21313,76.954679
122107,Akhera BO,Nuh,Haryana,28.095943,77.001664
122108,Bhadas BO,Nuh,Haryana,27.9204,76.984468
122413,Dhani Chitarsain BO,Gurugram,Haryana,29.387631,77.446429
122414,Khatauli BO,Gurugram,Haryana,28.271733,76.740867
122502,Khalilpur SO,Gurugram,Haryana,28.2743611,76.6789722
122503,Unchamajra BO,Gurugram,Haryana,28.325728,76.777811
122504,Haillymandi SO,Gurugram,Haryana,28.3351667,76.7561111
122505,Mankdola BO,Gurugram,Haryana,28.421592,76.914258
122506,Patil RS BO,Gurugram,Haryana,28.446796,76.825692
122508,Baded BO,Nuh,Haryana,27.824681,77.177104
123001,Dhanota BO,Mahendragarh,Haryana,28.044064,76.118082
123021,Mandi Ateli SO,Mahendragarh,Haryana,28.1001389,76.2607222
123023,Nangal Chaudhry SO,Mahendragarh,Haryana,27.8916389,76.1113056
123024,Satnali SO,Mahendragarh,Haryana,28.3783333,75.9656944
123027,Kanina SO,Mahendragarh,Haryana,28.3333889,76.3052778
123028,Nangal Sirohi SO,Mahendragarh,Haryana,27.8916389,76.1113056
123029,Buddin BO,Mahendragarh,Haryana,28.25814,76.139164
123031,Central University Haryana Mohindergarh SO,Mahendragarh,Haryana,28.271019,76.149389
123034,Dhana BO,Mahendragarh,Haryana,28.258604,76.227683
123035,Palhawas SO,Rewari,Haryana,28.3561667,76.62175
123101,Basbatori BO,Rewari,Haryana,28.201261,76.485949
123102,Pali BO,Rewari,Haryana,28.145891,76.394749
123103,Khol SO,Rewari,Haryana,28.1728056,76.402
123106,Dharuhera SO,Rewari,Haryana,28.2306667,76.80025
123110,Industrial Area Dharuhera SO,Rewari,Haryana,28.2335556,77.8032778
123301,Guriani SO,Rewari,Haryana,28.3571944,76.5355
123302,Tumna BO,Rewari,Haryana,28.399192,76.483651
123303,Bisowa BO,Rewari,Haryana,28.409434,76.397007
123401,Rewari SO,Rewari,Haryana,28.0501111,76.1168889
123411,Dahina SO,Rewari,Haryana,28.2938611,76.3839722
123412,Rajgarh BO,Rewari,Haryana,28.097334,76.515583
123501,Nangal Shahbazpur BO,Rewari,Haryana,28.069873,76.579918
124001,Model Town SO Rohtak,Rohtak,Haryana,28.405859,76.215935
124010,Bhali Anandpur BO,Rohtak,Haryana,28.231475,75.748085
124021,Maina BO,Rohtak,Haryana,28.452977,76.378498
124022,Bahu Akbarpur BO,Rohtak,Haryana,28.671593,76.748085
124102,Dujana SO,Jhajjar,Haryana,28.6827222,76.6320833
124103,Khatiwas BO,Jhajjar,Haryana,28.552824,76.554108
124104,Nehru College Jhajjar SO,Jhajjar,Haryana,28.6125278,76.6875833
124105,Bhupnia BO,Jhajjar,Haryana,28.513312,76.866875
124106,Sehlenga BO,Jhajjar,Haryana,28.405859,76.215935
124107,Chhochi BO,Jhajjar,Haryana,28.634988,76.823959
124108,Machrauli SO,Jhajjar,Haryana,28.4758889,76.6593889
124109,Tumbaheri BO,Jhajjar,Haryana,28.414786,76.540718
124111,Ajaib BO,Rohtak,Haryana,28.681179,76.510506
124112,Saman BO,Rohtak,Haryana,28.405859,76.215935
124113,Katesra BO,Rohtak,Haryana,28.54651,76.683197
124141,Power Plant Jharli SO,Jhajjar,Haryana,28.8955833,76.5925278
124142,Bahu SO,Jhajjar,Haryana,28.4542222,76.3253611
124146,Sahlawas SO,Jhajjar,Haryana,28.4555833,76.4654167
124201,Bakra BO,Jhajjar,Haryana,28.482253,76.301422
124202,Sewana BO,Jhajjar,Haryana,28.552824,76.554108
124303,Chamaria BO,Rohtak,Haryana,28.490702,76.515484
124401,Dhamar BO,Rohtak,Haryana,28.503525,76.599255
124404,Nilothi BO,Jhajjar,Haryana,28.634988,76.823959
124406,Bakheta BO,Rohtak,Haryana,28.605585,76.620026
124411,Banyani BO,Rohtak,Haryana,28.452977,76.378498
124412,Kakrana BO,Rohtak,Haryana,28.605585,76.620026
124501,Rohad BO,Jhajjar,Haryana,28.452977,76.378498
124504,Chudani BO,Jhajjar,Haryana,28.655326,76.753407
124505,LADRAWAN BO,Jhajjar,Haryana,28.513312,76.866875
124506,Mandothi SO,Jhajjar,Haryana,28.681179,76.902704
124507,IABahadurgarh SO,Jhajjar,Haryana,28.681179,76.902704
124508,Luksar BO,Jhajjar,Haryana,28.4153,77.5547
124513,Nindana SO,Rohtak,Haryana,29.0100277,76.3781722
124514,Sunderpur BO,Rohtak,Haryana,28.503525,76.599255
125001,Mini Sectthisar SO,Hisar,Haryana,29.1333611,75.7080278
125004,Sarsana BO,Hisar,Haryana,29.1497222,75.70825
125005,Vidut Nagar Hisar SO,Hisar,Haryana,28.1336389,75.7558611
125006,Dahima BO,Hisar,Haryana,29.1123472,75.1883777
125007,Gawar BO,Hisar,Haryana,29.1324512,75.5500702
125011,CSF Hisar BO,Hisar,Haryana,29.191513,75.695714
125033,Sultanpur BO,Hisar,Haryana,28.6822222,76.9312
125037,Kanwari BO,Hisar,Haryana,28.9448611,75.8261241
125038,Khanda Kheri SO,Hisar,Haryana,29.188,76.2245833
125039,Budana BO,Hisar,Haryana,29.2246111,76.1387501
125042,Kharbala BO,Hisar,Haryana,29.1086944,75.5512778
125044,Bhagana BO,Hisar,Haryana,29.1288333,75.7844722
125047,Thaska BO,Hisar,Haryana,29.270192,75.693532
125048,Khara Kheri BO,Fatehabad,Haryana,29.191513,74.079947
125049,Kheri Gangan BO,Hisar,Haryana,29.1594444,75.5712778
125050,Fatehabd Kty SO,Fatehabad,Haryana,29.5035,75.4700556
125051,M S Rattia SO,Fatehabad,Haryana,29.1594444,75.5712778
125052,Ladwi BO,Hisar,Haryana,28.1817777,75.4726388
125053,Suli Khera BO,Fatehabad,Haryana,29.378824,75.031852
125054,Patli Dabar BO,Sirsa,Haryana,29.5461388,75.2148333
125055,Begu Road Sirsa SO,Sirsa,Haryana,29.5269666,75.0322166
125056,JCD Vidyapeeth Sirsa,Sirsa,Haryana,29.5347778,75.0320833
125058,Mochiwali BO,Sirsa,Haryana,29.4503055,75.1193333
125060,RASULPUR BO,Sirsa,Haryana,29.533766,75.031852
125075,Nakora BO,Sirsa,Haryana,29.5275277,74.7394722
125076,Kharian BO,Sirsa,Haryana,29.5235833,74.8406388
125077,Nezadela Khurd BO,Sirsa,Haryana,29.7654166,74.8992777
125078,Bapp BO,Sirsa,Haryana,29.6993611,75.0066388
125101,Jandwala Bishnoian BO,Sirsa,Haryana,29.7802222,74.5243055
125102,Berwala Khurd BO,Sirsa,Haryana,29.4490833,74.6628611
125103,Kaluana BO,Sirsa,Haryana,29.78325,74.7477222
125104,Lohgarh BO,Sirsa,Haryana,29.9591388,74.6981111
125106,Diwana BO,Fatehabad,Haryana,29.6745555,75.7301111
125110,Sherpura BO,Sirsa,Haryana,29.3710277,75.1261388
125111,Dhani Gopal BO,Fatehabad,Haryana,29.2100833,75.7090277
125112,Khairi BO,Hisar,Haryana,29.5743333,75.7863055
125113,Saniana BO,Fatehabad,Haryana,29.5065833,76.3382222
125120,Amani BO,Fatehabad,Haryana,29.672047,75.857027
125121,Barwala SO Hisar,Hisar,Haryana,29.1594444,75.5712778
125133,Mundlian BO,Fatehabad,Haryana,29.5347777,75.0320833
125201,Jalalana BO,Sirsa,Haryana,29.82675,74.9754166
126101,Kerela B.O,Jind,Haryana,29.3,36.3
126102,Ram Rai B.O,Jind,Haryana,28.9,36.3
126110,Dalamwala B.O,Jind,Haryana,28.11111,29.4444
126111,Pegan B.O,Jind,Haryana,23.36,36.32
126112,Karsindu B.O,Jind,Haryana,22.25,21.12
126113,DHARAULI,Jind,Haryana,29.45,30.14
126114,Shamlo Kalan S.O,Jind,Haryana,29.2098056,76.39675
126115,Barsola B.O,Jind,Haryana,26.02,26.02
126116,Rajgarh Gurthali B.O,Jind,Haryana,23.5,23.5
126125,Chuharpur B.O,Jind,Haryana,29.3,36.3
126152,Sachha Khera B.O,Jind,Haryana,29.5902777,76.1099166
127021,Lohar Bazar SO,Bhiwani,Haryana,28.7752,75.9928
127022,Dudhwa BO,Charki Dadri,Haryana,28.4614,76.2609
127025,Aun BO,Charki Dadri,Haryana,28.7784,76.3418
127026,Birhi Kalan SO,Charki Dadri,Haryana,28.5997,76.1517
127027,Chang SO,Bhiwani,Haryana,28.8837,76.2392
127028,Serla BO,Bhiwani,Haryana,28.6296,75.6179
127029,Leghan BO,Bhiwani,Haryana,28.6995,75.8708
127030,Dhabdhani BO,Bhiwani,Haryana,28.6358,75.9434
127031,Badesera BO,Bhiwani,Haryana,28.862,76.1407
127032,Milkpur BO,Bhiwani,Haryana,28.9449,76.0334
127035,Ratera BO,Bhiwani,Haryana,28.9639,75.9565
127040,Kharkhari Sohan BO,Bhiwani,Haryana,28.8725,75.9144
127041,Jatai BO,Bhiwani,Haryana,28.9734,76.1958
127042,Sanjarwas BO,Charki Dadri,Haryana,28.7129,76.2911
127043,Bhariwas BO,Bhiwani,Haryana,28.7218,75.7664
127045,Barwa SO,Bhiwani,Haryana,28.9648,75.6063
127046,Siwani SO,Bhiwani,Haryana,28.9084,75.6121
127111,Dang BO,Bhiwani,Haryana,28.8199,76.0653
127114,Kharak Kalan SO,Bhiwani,Haryana,28.828,76.3087
127201,Kural BO,Bhiwani,Haryana,28.4267,75.804
127306,Dhadhi Mandola BO,Charki Dadri,Haryana,28.5921,76.2653
127307,Achina SO,Charki Dadri,Haryana,28.6745,76.3707
127308,Kario Baniawalij BO,Charki Dadri,Haryana,28.5094,75.9376
127309,Neemriwali BO,Bhiwani,Haryana,28.7084,76.22
127310,Jawa BO,Charki Dadri,Haryana,28.5216,76.1508
127311,Dhana Ladan Pur BO,Bhiwani,Haryana,28.7158,76.1414
127312,Dagroli BO,Charki Dadri,Haryana,28.5074,76.0695
131001,Sonipat Mandi SO,Sonipat,Haryana,28.9559167,7.0249167
131021,Bahalgarh SO,Sonipat,Haryana,28.958175,77.0929861
131022,Salimsar Majra BO,Sonipat,Haryana,21.15,81.71
131023,Jakhauli SO,Sonipat,Haryana,28.93425,77.1521389
131024,Juan SO,Sonipat,Haryana,28.9330278,76.9749722
131027,Jainpur BO,Sonipat,Haryana,29.03,77.07
131028,Industrial Estate Kundli SO,Sonipat,Haryana,28.8653889,77.1265833
131029,PSRai SO,Sonipat,Haryana,28.9253611,77.1035833
131030,TDI City Kundli SO,Sonipat,Haryana,28.4391,77.3009
131039,Pipli Khera BO,Sonipat,Haryana,29.02,77.06
131101,Ganaur SO,Sonipat,Haryana,29.1263611,77.0201389
131102,Moi Majri BO,Sonipat,Haryana,28.98,77.1
131103,Nahri SO,Sonipat,Haryana,28.8556667,77.0456667
131301,Mini Sectt Gohana,Sonipat,Haryana,28.9926944,77.0179722
131302,Bichpari BO,Sonipat,Haryana,26.88,75.62
131304,Rindana BO,Sonipat,Haryana,29.14,77.08
131305,Kanyagurukul Khanpur SO,Sonipat,Haryana,29.156,76.8015556
131306,Busana BO,Sonipat,Haryana,28.87,76.91
131402,Sehri BO,Sonipat,Haryana,28.87,76.91
131403,Bindroli BO,Sonipat,Haryana,28.95,76.93
131408,Garhi Sisana ED BO,Sonipat,Haryana,28.9,76.84
131409,Bhainswal Kalan SO,Sonipat,Haryana,28.9894444,77.0252777
132001,Jundla Gate B.O,Karnal,Haryana,28.32,28.32
132022,Kunjpura S.O,Karnal,Haryana,29.7176111,77.0783056
132023,Subri B.O,Karnal,Haryana,29.6874444,76.9906666
132024,Agongh B.O,Karnal,Haryana,29.3959722,76.9606388
132036,Peont B.O,Karnal,Haryana,28.11111,29.4444
132037,Bajida Jattan B.O,Karnal,Haryana,29.3959722,76.9606388
132039,Assandh S.O,Karnal,Haryana,29.5212222,76.6070278
132040,Ballah S.O,Karnal,Haryana,29.5053611,76.7852222
132041,Indri S.O,Karnal,Haryana,29.5494444,77.0507778
132046,Salwan S.O,Karnal,Haryana,29.5052778,76.7146111
132054,Garhi Birbal S.O,Karnal,Haryana,29.9111944,77.1550278
132101,Machhrauli B.O,Panipat,Haryana,28.66,32.33
132102,Patti Kalyana S.O,Panipat,Haryana,29.2116944,77.2351667
132103,Panipat Sugar Mills S.O,Panipat,Haryana,29.3731944,76.9596944
132104,Nanhera B.O,Panipat,Haryana,23.36,36.35
132105,Untla B.O,Panipat,Haryana,29.3,33.6
132106,Panipat NFL S.O,Panipat,Haryana,29.36213889,76.97230556
132107,Ahar B.O,Panipat,Haryana,23.5,23.5
132108,Pasina Kalan BO B.O,Panipat,Haryana,25.3,25.3
132113,Joshi B.O,Panipat,Haryana,23.5,23.5
132114,Jamalpur B.O,Karnal,Haryana,23.12,23.12
132115,Hathwala S.O,Panipat,Haryana,29.2262222,77.1155556
132116,Nariana B.O,Karnal,Haryana,29.5902777,76.1099166
132117,Bhadson B.O,Karnal,Haryana,29.3959722,76.9606388
132122,Atta S.O,Panipat,Haryana,29.2515,77.0990833
132140,Ganjbarh B.O,Panipat,Haryana,23.5,23.5
132145,Palri B.O,Panipat,Haryana,23.5,23.5
132157,Nigdhu S.O,Karnal,Haryana,20.8370278,76.7370278
133001,Gobind Nagar S.O,Ambala,Haryana,30.3347222,76.8601389
133004,Baraula B.O,Ambala,Haryana,30.210836,76.758583
133005,Babyal S.O,Ambala,Haryana,30.3569444,76.8783333
133006,Ind estate S.O,Ambala,Haryana,30.3325556,76.8798333
133008,Majri S.O,Ambala,Haryana,30.378179,76.776697
133010,Defence Colony S.O,Ambala,Haryana,28.572633,77.23251
133101,Keshopur Samalkha B.O,Ambala,Haryana,30.2937,76.9207
133102,Dinarpur B.O,Ambala,Haryana,30.210964,76.900199
133103,Mustafabad S.O (Yamuna Nagar),Yamunanagar,Haryana,30.1364167,77.1342222
133104,Kalpi B.O,Ambala,Haryana,26.121,79.7484
133201,Barara S.O,Ambala,Haryana,30.2166667,77.042
133202,Saran B.O,Yamunanagar,Haryana,30.210859,77.103929
133203,Dhanaura B.O,Ambala,Haryana,28.9546,78.2647
133204,Sadiqpur B.O,Yamunanagar,Haryana,30.378,76.776
133205,Thumber B.O,Ambala,Haryana,30.16976,77.0231
133206,Sherpur Sulkhani B.O,Ambala,Haryana,30.316,77.235
133207,M.M.E.Complex Mulana S.O,Ambala,Haryana,30.2674976,77.0222963
133301,B.C.W. Suraj Pur S.O,Panchkula,Haryana,30.7742777,76.8948333
133302,Kalka R.S. S.O,Panchkula,Haryana,30.0587757,76.085601
134003,Preet Nagar S.O (Ambala),Ambala,Haryana,30.2645243,76.0385927
134005,Jandli S.O,Ambala,Haryana,30.38425,76.7716667
134007,Baknaur B.O,Ambala,Haryana,30.358442,76.763229
134008,Durga Nagar S.O,Ambala,Haryana,17.426888,78.454591
134101,H.M.T.Pinjore S.O,Panchkula,Haryana,30.7827222,76.9102778
134102,Mallah B.O,Panchkula,Haryana,30.694215,76.860559
134103,I.T.B.P.  Bhanu S.O,Panchkula,Haryana,30.6343333,76.91525
134104,C.R.P.F. Pinjore S.O,Panchkula,Haryana,30.7826389,76.9247222
134105,Amravati  Enclave SO,Panchkula,Haryana,30.38425,76.7716667
134107,Chandi Mandir Cantt S.O,Panchkula,Haryana,30.7238333,76.8759167
134108,G.K. Panchkula S.O,Panchkula,Haryana,30.7064167,76.8727778
134109,Panchkula Sector 8 S.O,Panchkula,Haryana,30.565659,76.937756
134112,Panchkula Sector 4 S.O,Panchkula,Haryana,30.565659,76.937756
134113,Industrial Estate  Panchkula S.O,Panchkula,Haryana,30.6765722,76.8369361
134114,Mansa  Devi Sec 5 S.O,Panchkula,Haryana,30.7212222,76.8525833
134116,Sector 26 Panchkula S.O,Panchkula,Haryana,30.565659,76.937756
134117,Sector 20 Panchkula S.O,Panchkula,Haryana,30.6691944,76.8578611
134118,Khatauli B.O,Panchkula,Haryana,29.36695,75.9458
134201,Fatehgarh B.O,Ambala,Haryana,30.3781788,76.7766974
134202,Kakarmajra B.O,Ambala,Haryana,30.4234973,76.9621951
134203,Bhurewala B.O,Ambala,Haryana,30.382474,77.0617433
134204,Hangola B.O,Panchkula,Haryana,30.531262,77.029812
134205,Thendog B.O,Panchkula,Haryana,30.378183,76.776692
135001,Model Town S.O (Yamuna Nagar),Yamunanagar,Haryana,18.6636256,73.780869
135002,Harnaul B.O,Yamunanagar,Haryana,27.703,77.7497
135003,Parkash Chowk S.O,Yamunanagar,Haryana,18.6636256,73.780869
135004,Shadi Pur B.O,Yamunanagar,Haryana,30.0835,77.2654
135021,Bakarwala B.O,Yamunanagar,Haryana,30.31587,77.52009
135101,Rampur Khadar B.O,Yamunanagar,Haryana,30.12878,77.39937
135102,Bilaspur (Yamunanagar) S.O,Yamunanagar,Haryana,30.1364167,77.1342222
135103,Bilauli B.O,Yamunanagar,Haryana,30.226,77.358284
135106,Pipli Majra B.O,Yamunanagar,Haryana,30.2413796,77.4873959
135133,Ghillaur B.O,Yamunanagar,Haryana,27.94896,78.8761
136020,Jajjanpur B.O,Kaithal,Haryana,29.875369,76.606611
136021,Chuhar Majra B.O,Kaithal,Haryana,29.846383,76.663193
136026,Deeg B.O,Kaithal,Haryana,29.762047,76.559555
136027,Model Town Kaithal S.O,Kaithal,Haryana,29.785673,76.398454
136030,Ramgarh Ror B.O,Kurukshetra,Haryana,29.93617,76.551097
136033,Kangthali B.O,Kaithal,Haryana,29.799859,76.4173
136034,Kharaudi B.O,Kaithal,Haryana,29.799859,76.4173
136035,Seonmajra B.O,Kaithal,Haryana,30.038024,76.298064
136038,Amin S.O,Kurukshetra,Haryana,29.5702778,76.8703056
136042,Teontha B.O,Kaithal,Haryana,29.802463,76.560383
136043,Pilni B.O,Kaithal,Haryana,29.670538,76.5168
136044,Santokh Majra B.O,Kaithal,Haryana,29.57595,76.484933
136117,Kurar B.O,Kaithal,Haryana,29.674897,76.256273
136118,Sector 3 U E KKR S.O,Kurukshetra,Haryana,29.960663,76.890856
136119,Hathira B.O,Kurukshetra,Haryana,29.955549,76.812926
136128,Bodhni B.O,Kurukshetra,Haryana,29.981417,76.589277
136129,Chammu Kalan B.O,Kurukshetra,Haryana,30.115686,76.666405
136130,Ajrana Kalan B.O,Kurukshetra,Haryana,29.973217,76.830346
136131,Pipli S.O,Kurukshetra,Haryana,29.973217,76.830346
136132,Ban B.O,Kurukshetra,Haryana,29.987047,77.041004
136134,Mohri S.O,Kurukshetra,Haryana,29.9695,76.8782
136135,Sudpur B.O,Kurukshetra,Haryana,29.973217,76.830346
136136,Thol S.O,Kurukshetra,Haryana,30.166519,76.709604
136156,Bir Kalwa B.O,Kurukshetra,Haryana,30.084325,76.987348
140001,I I T ROPAR,Rupnagar,Punjab,30.692051,76.69841
140101,Bhamnara BO,Rupnagar,Punjab,30.692051,76.69841
140102,Samana Kalan BO,Rupnagar,Punjab,30.692051,76.69841
140103,Chintgarh BO,S.A.S Nagar,Punjab,30.3876944,76.3715277
140108,Ballamgarh BO,Rupnagar,Punjab,30.692051,76.69841
140109,Khizrabad West SO,S.A.S Nagar,Punjab,30.8801944,76.6578889
140110,Kansala BO,S.A.S Nagar,Punjab,30.692051,76.69841
140111,Bhoje Majra BO,Rupnagar,Punjab,30.692051,76.69841
140112,Chamkaur Sahib SO,Rupnagar,Punjab,30.89425,76.4149722
140113,Nuhon Colony Ropar SO,Rupnagar,Punjab,30.0321388,76.5780833
140114,Bharatgarh Canal Colony BO,Rupnagar,Punjab,30.9666111,76.3715277
140115,Massewal BO,Rupnagar,Punjab,30.3876944,76.5883888
140116,Paharpur Samloh BO,Rupnagar,Punjab,30.9666111,76.3715277
140117,Chanauli BO,Rupnagar,Punjab,30.9666111,76.3715277
140118,Agampur BO,Rupnagar,Punjab,30.692051,76.69841
140119,Takhatgarh SO,Rupnagar,Punjab,30.1275361,76.5127
140123,Thaluh BO,Rupnagar,Punjab,30.9666111,76.3715277
140124,Nangal Dam SO,Rupnagar,Punjab,30.3876944,76.3715277
140125,Manakpur BO,Rupnagar,Punjab,30.692051,76.69841
140126,Naya Nangal Sector 2 SO,Rupnagar,Punjab,30.3876944,76.3715277
140127,Bhallan B.O,Rupnagar,Punjab,30.9666111,76.3715277
140128,DUMEWAL SO,Rupnagar,Punjab,30.692051,76.69841
140133,Khamera BO,Rupnagar,Punjab,30.9666111,76.3715277
140201,Mubarakpur SO Patiala,S.A.S Nagar,Punjab,30.692051,76.69841
140301,Tewar BO,S.A.S Nagar,Punjab,30.9666111,76.3715277
140306,Manauli SO,S.A.S Nagar,Punjab,30.6431388,75.7233055
140307,Landran SO,S.A.S Nagar,Punjab,30.6951111,76.6647778
140308,Sohana SO,S.A.S Nagar,Punjab,30.68675,76.6914444
140401,KSM Rajpura SO,Patiala,Punjab,30.4716389,76.0955556
140402,Bhapal BO,Patiala,Punjab,23.79,77.5
140405,Badochikalan BO,Fatehgarh Sahib,Punjab,30.55,76.37
140406,Rajindergarh BO,Fatehgarh Sahib,Punjab,21.25,81.69
140407,Fatehgarh Sahib SO,Fatehgarh Sahib,Punjab,30.6480833,76.39275
140408,Dhangerian BO,Fatehgarh Sahib,Punjab,30.61,76.5
140412,Bassi SO,Fatehgarh Sahib,Punjab,30.648879,76.390767
140413,Gharuan SO,S.A.S Nagar,Punjab,30.7742777,76.5606111
140417,Nogawan BO,Patiala,Punjab,25.37,81.84
140501,Lalru SO,S.A.S Nagar,Punjab,30.4899722,76.8009167
140506,Dappar Ad SO,S.A.S Nagar,Punjab,30.5335556,76.8065556
140507,Derabassi SO,S.A.S Nagar,Punjab,30.4601667,76.8762778
140601,Karala BO,Patiala,Punjab,30.5,76.8
140602,Manakpur SO,Patiala,Punjab,30.0950556,76.1320833
140603,Zirakpur SO,S.A.S Nagar,Punjab,30.6539722,76.8209722
140604,Baltana SO,S.A.S Nagar,Punjab,30.6703333,76.8320556
140701,Narru BO,Patiala,Punjab,29.68,76.99
140702,Lachru Kalan BO,Patiala,Punjab,30.15,76.63
140802,Sanghol SO,Fatehgarh Sahib,Punjab,30.648879,76.390767
140901,Jayanti Devi BO,S.A.S Nagar,Punjab,30.692051,76.69841
141001,Sarabha Nagar SO,Ludhiana,Punjab,30.894,75.8178888
141002,Model Town Ludhiana SO,Ludhiana,Punjab,30.8414722,75.6719722
141003,Shimlapuri SO,Ludhiana,Punjab,30.8656777,75.86405
141004,PAU SO,Ludhiana,Punjab,30.9023889,75.8146944
141006,Gne College SO,Ludhiana,Punjab,30.8589167,75.8616389
141007,Basti Jodhewal SO,Ludhiana,Punjab,30.9314638,75.8716944
141008,BHATTIAN SO,Ludhiana,Punjab,30.5725,75.4938
141010,Focal Point SO,Ludhiana,Punjab,30.8837222,75.9091111
141011,"Nodal Delivery Centre, Ludhiana",Ludhiana,Punjab,,
141012,Rajguru Nagar SO,Ludhiana,Punjab,30.8803889,75.7908333
141013,Basant Avenue SO,Ludhiana,Punjab,30.8593611,75.8317778
141014,Dhandari Kalan SO,Ludhiana,Punjab,30.8682222,75.9192222
141015,Mundian Kalan SO,Ludhiana,Punjab,30.895225,75.9295
141016,Lohora SO,Ludhiana,Punjab,30.848,75.8905
141017,Jugiana SO,Ludhiana,Punjab,30.846,75.9481111
141101,Jangpura BO,Ludhiana,Punjab,28.582103,77.248525
141102,Hassanpur BO,Ludhiana,Punjab,27.965739,77.498875
141103,Khandur BO,Ludhiana,Punjab,30.798904,75.721158
141104,Akalgarh BO,Ludhiana,Punjab,30.758898,75.652812
141105,Tossey BO,Ludhiana,Punjab,30.735593,75.672026
141106,Halwara Aerodrome SO,Ludhiana,Punjab,30.7642861,75.6514138
141107,Heeran Hans BO,Ludhiana,Punjab,23.033276,72.635718
141108,Nangal Kalan BO,Ludhiana,Punjab,29.921601,75.39224
141109,Tajpura BO,Ludhiana,Punjab,21.658136,87.626042
141110,Bhatta Dhahan BO,Ludhiana,Punjab,26.897615,75.830189
141112,Heeran BO,Ludhiana,Punjab,4.321015,45.299386
141113,Uppal BO,Ludhiana,Punjab,17.398377,78.558265
141114,Madpur BO,Ludhiana,Punjab,22.380971,87.440141
141115,Takhran BO,Ludhiana,Punjab,30.884555,76.13417
141116,Jassowal BO,Ludhiana,Punjab,30.793602,75.598985
141117,Karamsar BO,Ludhiana,Punjab,28.625922,77.123608
141118,Khatorachuharam BO,Ludhiana,Punjab,22.973122,86.854657
141119,Babarpur BO,Ludhiana,Punjab,28.687609,77.282161
141120,Nandpur BO,Ludhiana,Punjab,30.700901,76.50402
141121,Pawat BO,Ludhiana,Punjab,26.154589,84.463862
141122,Natt BO,Ludhiana,Punjab,30.045939,75.101264
141123,Ramgarh SO Ludhiana,Ludhiana,Punjab,30.8414722,75.6719722
141125,Kotala BO,Ludhiana,Punjab,13.592359,79.281759
141126,Sri Bhaini Sahib SO,Ludhiana,Punjab,30.8709472,76.0686666
141127,Borra BO,Ludhiana,Punjab,18.274682,83.039158
141201,Kila Raipur SO,Ludhiana,Punjab,30.7623611,75.8213055
141202,Phalewal BO,Ludhiana,Punjab,30.722743,75.744417
141203,Lohgarh BO,Ludhiana,Punjab,30.447643,77.421428
141204,Chhapar BO,Ludhiana,Punjab,27.818593,74.437907
141205,Bahrampur BO,Ludhiana,Punjab,26.74159,83.280703
141206,Khanpur BO,Ludhiana,Punjab,28.633183,70.657369
141401,Amloh RoadKhanna SO,Ludhiana,Punjab,30.6526111,76.2796111
141411,Bhari SO,Fatehgarh Sahib,Punjab,30.648879,76.390767
141412,Mohanpur BO,Ludhiana,Punjab,21.839817,87.423231
141413,Sihaura BO,Ludhiana,Punjab,30.655883,76.005824
141414,Jallajan BO,Ludhiana,Punjab,30.632943,76.073275
141415,Bharthala Randhawa BO,Ludhiana,Punjab,30.569922,76.078307
141416,Ghudani Khurd BO,Ludhiana,Punjab,30.716097,76.032046
141417,Goh BO,Ludhiana,Punjab,24.977614,84.655759
141418,Mehdoodan BO,Ludhiana,Punjab,30.811177,76.080526
141419,Ghaloti BO,Ludhiana,Punjab,30.716852,75.970998
141421,Bilaspur BO,Ludhiana,Punjab,22.079625,82.139141
141422,Hissowal BO,Ludhiana,Punjab,30.803952,75.665902
141801,Chari BO,Fatehgarh Sahib,Punjab,30.78,76.3
142001,Moga HO,Moga,Punjab,30.81337,75.175565
142002,Budh Singh Wala BO,Moga,Punjab,30.70515,75.03696
142003,Moga Kty SO,Moga,Punjab,30.81337,75.175565
142011,Bughipura BO,Moga,Punjab,30.73125,75.429
142021,Pamali BO,Ludhiana,Punjab,30.824324,75.747324
142022,Dad BO,Ludhiana,Punjab,20.396227,76.00002
142023,Pabbian BO,Ludhiana,Punjab,30.789654,75.564059
142024,Malak BO,Ludhiana,Punjab,12.393,130.904
142025,Majri BO,Ludhiana,Punjab,21.206253,75.287279
142026,Jagraon City SO,Ludhiana,Punjab,30.7854777,75.4727611
142027,Ayali Kalan SO,Ludhiana,Punjab,30.8924277,75.7600194
142028,Threeke SO,Ludhiana,Punjab,30.7936111,75.4743333
142029,Dhaipai BO,Ludhiana,Punjab,30.779544,75.724065
142030,Sujapur BO,Ludhiana,Punjab,25.069081,88.137679
142031,Hathur SO,Ludhiana,Punjab,30.6020555,75.4294444
142032,Chak Bahi Ke BO,Ludhiana,Punjab,30.583021,75.50292
142033,Sodhiwal BO,Ludhiana,Punjab,19.23286,72.851394
142034,Manuke SO,Ludhiana,Punjab,30.6756944,75.4573138
142035,Rasulpur BO,Ludhiana,Punjab,23.18401,88.030195
142036,Nanaksar BO,Ludhiana,Punjab,30.801516,75.421362
142037,Raoke Kalan BO,Moga,Punjab,30.68715,75.3063
142038,Channuwala BO,Moga,Punjab,30.0992387,74.6122159
142039,Machhike BO,Moga,Punjab,30.59428,75.36167
142040,Mallianwala BO,Moga,Punjab,30.7435745,75.2030129
142041,Talwandi Mallian BO,Moga,Punjab,30.90989,74.1386607
142042,Sherpur Tiaba BO,Moga,Punjab,30.8164693,75.1717003
142043,Shah Abu Bakkar BO,Moga,Punjab,30.59428,75.36167
142044,Makhu SO,Firozepur,Punjab,30.927546,74.610497
142045,Raunta BO,Moga,Punjab,30.5601446,75.1924695
142046,Dina BO,Moga,Punjab,30.5186108,75.2347756
142047,Shahwala BO,Firozepur,Punjab,30.94655,74.9391
142048,Chotian Kalan BO,Moga,Punjab,30.2905822,74.729304
142049,Sekha Kalan BO,Moga,Punjab,30.3583021,75.6469824
142050,Tumber Bhan BO,Firozepur,Punjab,30.85535,74.94099
142052,Dhindsa BO,Firozepur,Punjab,30.7456,75.30656
142053,Matwani BO,Moga,Punjab,30.79727,75.32054
142054,Kapure BO,Moga,Punjab,30.8127248,75.1664797
142055,Saidoke BO,Moga,Punjab,30.526565,75.291646
142056,Phulewala BO,Moga,Punjab,30.6441411,75.1530698
142057,Tharaj BO,Moga,Punjab,30.5429558,75.107006
142058,Chak Kannian Kalan BO,Moga,Punjab,30.79727,75.32054
142060,Kabbar Wacha BO,Firozepur,Punjab,30.78484,74.8603
143001,Nawan Kot SO,Amritsar,Punjab,31.61,74.87
143002,Khalsa College SO,Amritsar,Punjab,31.63,74.84
143003,NODAL DELIVERY OFFICE,Amritsar,Punjab,31.63,74.88
143004,"Nodal Delivery Centre, Amritsar",Amritsar,Punjab,31.6386,74.8826
143005,Guru Nanak Dev University SO,Amritsar,Punjab,31.63,74.83
143006,Basti Ram Dhab SO,Amritsar,Punjab,31.61,74.87
143008,Gumtala BO,Amritsar,Punjab,31.67,74.85
143009,Thathgarh BO,Amritsar,Punjab,31.55,74.8
143022,Rataul BO,Amritsar,Punjab,31.51,74.92
143101,Bagga BO,Amritsar,Punjab,31.6339843,74.8722592
143102,Guru Ka Bagh BO,Amritsar,Punjab,31.77,74.83
143103,Kamalpur BO,Amritsar,Punjab,31.36,74.8
143105,Dhand BO,Amritsar,Punjab,31.54,74.76
143107,Bhuse BO,Tarn Taran,Punjab,31.54,74.68
143108,Bhaini Rajputan BO,Amritsar,Punjab,31.52,74.62
143109,Khiala Kalan BO,Amritsar,Punjab,31.67,74.71
143111,Bhorchi Rajputana BO,Amritsar,Punjab,31.4851588,75.13
143112,Chakkare Khan BO,Amritsar,Punjab,31.48,75.13
143113,Nawanpind BO,Amritsar,Punjab,31.54,74.99
143114,Rajdhan BO,Amritsar,Punjab,31.62,75.23
143115,Takhutuchak BO,Amritsar,Punjab,31.16,75.61
143116,Jabowal BO,Amritsar,Punjab,31.59,75.13
143117,Viring BO,Tarn Taran,Punjab,31.44,75.07
143118,Pindian BO,Tarn Taran,Punjab,31.39,75.13
143119,Bagga BO,Amritsar,Punjab,31.63,74.87
143149,Tmmowal BO,Amritsar,Punjab,31.53,75.1
143201,Gagrewal BO,Amritsar,Punjab,31.47,75.22
143202,Lakhuwal BO,Amritsar,Punjab,31.56,75.29
143203,Khanpur BO,Amritsar,Punjab,31.5320582,75.36
143204,DBJSingh SO,Amritsar,Punjab,31.54,75.32
143205,Butter Sivya BO,Amritsar,Punjab,31.58,75.3
143301,Maluwal BO,Tarn Taran,Punjab,31.43,74.77
143302,Sohal BO,Tarn Taran,Punjab,31.37,74.72
143303,Pahuwind BO,Tarn Taran,Punjab,31.34,74.7
143304,Bhai Ladhu BO,Tarn Taran,Punjab,31.26,74.68
143305,Rajoke BO,Tarn Taran,Punjab,31.28,74.55
143401,Tarn Taran HO,Tarn Taran,Punjab,31.457758,74.918607
143402,Manochahal BO,Tarn Taran,Punjab,31.39,74.85
143406,Bath BO,Tarn Taran,Punjab,31.34,74.79
143407,Johal Dhai Wala BO,Tarn Taran,Punjab,31.13,75.84
143408,Chamba Kalan BO,Tarn Taran,Punjab,31.26,75.0
143409,Thathian Mahantan BO,Tarn Taran,Punjab,31.31,74.95
143410,Marhana BO,Tarn Taran,Punjab,31.2,74.96
143411,Rusulpur BO,Tarn Taran,Punjab,31.37,74.95
143412,Harike SO,Tarn Taran,Punjab,31.17,74.94
143413,Jhita Kalan BO,Amritsar,Punjab,31.44,74.84
143414,Cheema Kalan BO,Tarn Taran,Punjab,31.48,74.67
143415,Sarhali Mandan BO,Tarn Taran,Punjab,31.27,74.94
143416,Bhangala BO,Tarn Taran,Punjab,31.15,74.71
143419,Rattoke Gurudwara BO,Tarn Taran,Punjab,31.1389065,74.62
143422,Jhandher M Purkhan BO,Tarn Taran,Punjab,31.34,75.12
143501,Khankot Garden Colony BO,Amritsar,Punjab,31.6,74.94
143502,Talwandi Dasaunda Singh BO,Amritsar,Punjab,31.68,75.04
143504,Ram Diwali Hinduan BO,Amritsar,Punjab,31.7,75.05
143505,Nehru Gate Batala SO,Gurdaspur,Punjab,31.8075,75.19558
143506,Ranger Nangal BO,Gurdaspur,Punjab,31.71,75.24
143507,Dadiala Natt BO,Gurdaspur,Punjab,31.6612295,75.6477087
143511,Bhuller BO,Gurdaspur,Punjab,31.86,75.22
143512,Kalanaur SO Gurdaspur,Gurdaspur,Punjab,31.01,75.15
143513,Villa Teja BO,Gurdaspur,Punjab,31.85,75.45
143514,Bolewal BO,Gurdaspur,Punjab,31.64,75.32
143515,Ballarwal BO,Gurdaspur,Punjab,31.65,75.41
143516,Khojala BO,Gurdaspur,Punjab,31.75,75.38
143517,Ghorewah BO,Gurdaspur,Punjab,31.83,75.47
143518,Dehriwal BO,Gurdaspur,Punjab,31.18,75.35
143519,Zaffarwal BO,Gurdaspur,Punjab,31.92,75.33
143520,Gurdas Nangal BO,Gurdaspur,Punjab,32.0,75.34
143521,Gurdaspur Kutchery SO,Gurdaspur,Punjab,32.043274,75.39888
143525,Marara SO,Gurdaspur,Punjab,32.043274,75.39888
143526,Galhri BO,Gurdaspur,Punjab,32.033858,75.407121
143527,Bharath BO,Gurdaspur,Punjab,31.74,75.43
143528,Kala Bala e BO,Gurdaspur,Punjab,31.19,75.45
143529,Bhumbli BO,Gurdaspur,Punjab,31.94,75.38
143530,Kotli Sainian BO,Gurdaspur,Punjab,31.96,75.45
143531,Pandori Bainsan BO,Gurdaspur,Punjab,31.82,75.43
143532,Bharath BO,Gurdaspur,Punjab,31.16,75.41
143533,Bianpure BO,Gurdaspur,Punjab,32.09,75.57
143534,Taragarh Gurdaspur SO,Pathankot,Punjab,32.043274,75.39888
143601,Bal Khurd BO,Amritsar,Punjab,31.72,74.9
143602,Sarchur BO,Gurdaspur,Punjab,31.82,75.05
143603,Jatta BO,Amritsar,Punjab,31.6339843,74.8722592
143604,Bhagthana Tulian BO,Gurdaspur,Punjab,31.59935,75.19825
143605,Shikar BO,Gurdaspur,Punjab,31.91,75.18
143606,Chak Sikandar BO,Amritsar,Punjab,31.44,74.65
144001,N R Colony SO,Jalandhar,Punjab,31.326723,75.586847
144002,Civil Secretariate SO,Jalandhar,Punjab,31.326723,75.586847
144003,Tower Town Colony SO,Jalandhar,Punjab,31.326723,75.586847
144004,Lidhran BO,Jalandhar,Punjab,31.3203,75.5908
144005,Rama Mandi SO,Jalandhar,Punjab,31.300299,75.630428
144006,PAP Lines Jalandhar Cantt SO,Jalandhar,Punjab,31.300299,75.630428
144007,Ladhewali SO,Jalandhar,Punjab,31.300299,75.630428
144008,Charanjitpura SO,Jalandhar,Punjab,31.326723,75.586847
144009,Chogitti SO,Jalandhar,Punjab,31.326723,75.586847
144010,Dhanowali SO,Jalandhar,Punjab,31.300299,75.630428
144011,REC Jalandhar SO,Jalandhar,Punjab,31.326723,75.586847
144012,"Nodal Delivery Centre, Jalandhar",Jalandhar,Punjab,31.1923,75.3453
144020,Udhopur BO,Jalandhar,Punjab,31.2415,75.6266
144021,Mand BO,Jalandhar,Punjab,31.2136,75.5924
144022,Urban Estate SO Jalandhar,Jalandhar,Punjab,31.300299,75.630428
144023,Dakoha SO,Jalandhar,Punjab,31.300299,75.630428
144024,Sansarpur BO,Jalandhar,Punjab,31.261,75.663
144025,Jandu Singha SO,Jalandhar,Punjab,31.326723,75.586847
144026,Lambra SO,Jalandhar,Punjab,31.326723,75.586847
144027,Suranussi SO,Jalandhar,Punjab,31.326723,75.586847
144028,Chitti SO,Jalandhar,Punjab,31.326723,75.586847
144029,Chhokran BO,Jalandhar,Punjab,31.0855,75.9167
144030,Padhiana SO,Jalandhar,Punjab,31.326723,75.586847
144031,RURKA KALAN SO,Jalandhar,Punjab,31.52747,75.8066
144032,Daduwal BO,Jalandhar,Punjab,31.2069036,75.6723245
144033,Chak Vendal BO,Jalandhar,Punjab,31.238182,76.488107
144034,Bundala SO Jalandhar,Jalandhar,Punjab,31.1398555,75.6734081
144035,Partappura SO,Jalandhar,Punjab,31.21781,75.76939
144036,Mowai BO,Jalandhar,Punjab,31.217805,75.769395
144037,Nagra BO,Jalandhar,Punjab,31.0847815,75.6909651
144039,Talwan BO,Jalandhar,Punjab,31.0076,75.6124
144040,Gandhran BO,Jalandhar,Punjab,31.1175115,75.4239491
144041,Parjian Kalan BO,Jalandhar,Punjab,31.022438,75.3958533
144042,Sharakpur BO,Jalandhar,Punjab,31.52747,75.8066
144043,Tahli BO,Jalandhar,Punjab,31.217805,75.769395
144044,Maheem BO,Jalandhar,Punjab,31.52747,75.8066
144101,Patara SO Jalandhar,Jalandhar,Punjab,31.326723,75.586847
144102,Adampur Doaba SO,Jalandhar,Punjab,31.326723,75.586847
144103,Adampur AD SO,Jalandhar,Punjab,31.326723,75.586847
144104,Daroli Kalan SO,Jalandhar,Punjab,31.326723,75.586847
144105,Phambian BO,Hoshiarpur,Punjab,30.25,74.87
144106,Adda Kathar SO,Jalandhar,Punjab,31.326723,75.586847
144201,Behram Sarista BO,Jalandhar,Punjab,31.326,75.5761
144202,Alampur BO,Hoshiarpur,Punjab,31.12,74.63
144204,Bassi Jalal Khan BO,Hoshiarpur,Punjab,30.56,74.12
144205,Dasuya HO,Hoshiarpur,Punjab,31.81726,75.657304
144206,Bahera BO,Hoshiarpur,Punjab,30.96,75.23
144207,Jandaur BO,Hoshiarpur,Punjab,31.12,75.42
144208,Baghpur BO,Hoshiarpur,Punjab,30.12,74.85
144209,Chowki Patiari BO,Hoshiarpur,Punjab,30.23,74.12
144210,Chautala BO,Hoshiarpur,Punjab,29.55,75.02
144211,Mansoorpur BO,Hoshiarpur,Punjab,31.5143178,75.911483
144212,Rajpur Gahot BO,Hoshiarpur,Punjab,31.24,75.84
144213,Sansarpur BO,Hoshiarpur,Punjab,31.77,75.85
144214,Abdulapur BO,Hoshiarpur,Punjab,30.24,75.89
144216,Rajwal BO,Hoshiarpur,Punjab,31.15,75.15
144221,Saggran BO,Hoshiarpur,Punjab,31.02,75.45
144222,Handwal BO,Hoshiarpur,Punjab,31.25,75.45
144223,Rampur Haler BO,Hoshiarpur,Punjab,30.13,74.27
144224,Bhater BO,Hoshiarpur,Punjab,23.41,87.91
144301,Alawalpur SO Jalandhar,Jalandhar,Punjab,31.326723,75.586847
144302,Kishanpur BO,Jalandhar,Punjab,30.9987,75.1652
144303,Kala Bakra SO,Jalandhar,Punjab,31.326723,75.586847
144305,Jhingar Kalan BO,Hoshiarpur,Punjab,30.84,74.45
144306,Mehtabpur BO,Hoshiarpur,Punjab,31.59,75.88
144311,Rorkee BO,Jalandhar,Punjab,31.32055,75.2584
144401,Banga Road Phagwara SO,Kapurthala,Punjab,31.2486,75.80989
144402,Sangatpur BO,Kapurthala,Punjab,31.0514,75.7
144403,Bohani BO,Kapurthala,Punjab,31.217806,75.769394
144404,Todarpur BO,Hoshiarpur,Punjab,31.02,75.46
144405,Mayopatti BO,Kapurthala,Punjab,31.217809,75.769391
144406,Dihana BO,Hoshiarpur,Punjab,30.45,75.42
144407,DOMELI SO,Kapurthala,Punjab,31.217806,75.769394
144408,PANCHHAT SO,Kapurthala,Punjab,31.3488818,75.8688551
144409,Gohawar BO,Jalandhar,Punjab,30.8686,75.7209
144410,Ganna Pind BO,Jalandhar,Punjab,31.02039,75.754592
144411,Raipur BO,Jalandhar,Punjab,31.217806,75.769394
144415,Lassara SO,Shahid Bhagat Singh Nagar,Punjab,31.300299,75.630428
144416,Mandi BO,Jalandhar,Punjab,31.0828,75.874
144417,Phambra BO,Shahid Bhagat Singh Nagar,Punjab,31.0684,76.0024
144418,Mansurpur BO,Jalandhar,Punjab,31.0914,75.8016
144419,Landhran BO,Jalandhar,Punjab,31.0531,75.8628
144421,Ghataron BO,Shahid Bhagat Singh Nagar,Punjab,31.1005,76.0377
144422,Bhakhlaur BO,Shahid Bhagat Singh Nagar,Punjab,31.0527,75.9633
144501,Jasso Mazara BO,Shahid Bhagat Singh Nagar,Punjab,31.1942,75.8491
144502,Sarhal Mandi BO,Jalandhar,Punjab,31.1537,75.8856
144503,Katarian BO,Shahid Bhagat Singh Nagar,Punjab,31.2222,75.8846
144504,Bhan Mazara BO,Shahid Bhagat Singh Nagar,Punjab,31.1739,75.8813
144505,Chak Kalan BO,Shahid Bhagat Singh Nagar,Punjab,31.1297,75.8731
144506,Bhaura BO,Shahid Bhagat Singh Nagar,Punjab,31.1869,75.9922
144507,Talwandi Fattu BO,Shahid Bhagat Singh Nagar,Punjab,31.1186,75.9558
144508,Bains BO,Shahid Bhagat Singh Nagar,Punjab,31.300299,75.630428
144509,Khanpur BO,Shahid Bhagat Singh Nagar,Punjab,31.1544,75.9623
144510,Paddi Matwali BO,Shahid Bhagat Singh Nagar,Punjab,31.2144,76.0232
144511,Herian BO,Shahid Bhagat Singh Nagar,Punjab,30.8675,76.2594
144512,Bhin BO,Shahid Bhagat Singh Nagar,Punjab,31.1634,76.435
144513,Kamam BO,Shahid Bhagat Singh Nagar,Punjab,31.1343,76.046
144514,Allachaur BO,Shahid Bhagat Singh Nagar,Punjab,31.0567,76.1557
144515,Muzaffarpur BO,Shahid Bhagat Singh Nagar,Punjab,31.0452,76.2265
144516,Bhagaura BO,Shahid Bhagat Singh Nagar,Punjab,31.104,76.1682
144517,Hiala BO,Shahid Bhagat Singh Nagar,Punjab,31.0436,76.1123
144518,Khoja BO,Shahid Bhagat Singh Nagar,Punjab,31.0182,76.0427
144519,Mananhana BO,Hoshiarpur,Punjab,31.04,75.41
144520,Thowana BO,Hoshiarpur,Punjab,30.04,74.56
144521,Ghamaur BO,Shahid Bhagat Singh Nagar,Punjab,31.02,75.45
144522,Majara Jattan BO,Shahid Bhagat Singh Nagar,Punjab,31.04,75.96
144523,Kotmaira BO,Hoshiarpur,Punjab,31.05,75.11
144524,Pojewal BO,Shahid Bhagat Singh Nagar,Punjab,30.45,75.89
144525,Mallewal BO,Shahid Bhagat Singh Nagar,Punjab,30.56,74.89
144526,Rurki Muglan BO,Shahid Bhagat Singh Nagar,Punjab,30.52,74.87
144527,Garhi Matton BO,Hoshiarpur,Punjab,30.84,74.51
144528,Badesron BO,Hoshiarpur,Punjab,30.24,75.58
144529,Dadyal BO,Hoshiarpur,Punjab,30.46,75.89
144530,Lalwan BO,Hoshiarpur,Punjab,31.08,75.84
144531,Kitna BO,Hoshiarpur,Punjab,30.24,74.58
144532,Simbli BO,Hoshiarpur,Punjab,30.94,75.08
144533,Asron S.O,Shahid Bhagat Singh Nagar,Punjab,31.516,75.904
144601,Kapurthala HO,Kapurthala,Punjab,31.3721893,75.3777881
144602,RAIL COACH FACTORY KAPURTHALA SO,Kapurthala,Punjab,31.34831,75.41814
144603,Aujla Jogi BO,Kapurthala,Punjab,31.0524277,75.6775263
144606,Talwandi Chaudharian SO,Kapurthala,Punjab,31.33855,75.1392
144620,Khaira Dona BO,Kapurthala,Punjab,31.0968,75.9381
144621,Jaid BO,Kapurthala,Punjab,31.5423277,75.5058281
144622,Ramgarh BO,Kapurthala,Punjab,31.2899717,75.7673025
144623,Kala Sanghian SO,Kapurthala,Punjab,31.26957,75.40631
144624,Raipur Arryan BO,Kapurthala,Punjab,31.52735,75.40625
144625,Sidhwan Dona SO,Kapurthala,Punjab,31.0919218,75.5189232
144626,Kabirpur BO,Kapurthala,Punjab,31.19524,75.1263
144628,Burewal BO,Kapurthala,Punjab,31.3257189,75.3407417
144629,Yusufpur Darewal BO,Jalandhar,Punjab,31.0444409,75.7127738
144630,Talwandi Bhairon BO,Jalandhar,Punjab,31.11101,75.7386
144631,Nangal Lubana SO,Kapurthala,Punjab,31.3810505,76.3810792
144632,Khothra Kalan BO,Shahid Bhagat Singh Nagar,Punjab,31.18494,75.72812
144633,Dhanipind BO,Jalandhar,Punjab,31.1778861,75.6576652
144701,Malupur BO,Jalandhar,Punjab,31.125807,75.473293
144702,Poonian BO,Jalandhar,Punjab,31.06579,75.24819
144703,Sadiqpur BO,Jalandhar,Punjab,31.125808,75.473292
144801,Rahimpur BO,Jalandhar,Punjab,31.37493,75.384206
144802,LAKHAN KALAN BO,Kapurthala,Punjab,31.38345,75.32705
144803,Dialpur SO,Jalandhar,Punjab,31.05042,75.91407
144804,Dhaliwal Bet BO,Kapurthala,Punjab,31.1684383,75.5938799
144805,Kahlwan BO,Jalandhar,Punjab,31.3260222,75.5761759
144806,Khusropur BO,Jalandhar,Punjab,31.2676983,75.6353474
144819,IBRAHIMWAL,Kapurthala,Punjab,31.52747,75.8066
145001,Mission Road Pathankot SO,Pathankot,Punjab,32.043274,75.39888
145022,Lehroon BO,Pathankot,Punjab,32.2643445,75.6421051
145023,Sujanpur SO Gurdaspur,Pathankot,Punjab,32.043274,75.39888
145024,Madhopur SO Gurdaspur,Pathankot,Punjab,32.043274,75.39888
145025,Malakpur SO,Pathankot,Punjab,32.043274,75.39888
145026,Narot Jailmal Singh SO,Pathankot,Punjab,32.043274,75.39888
145027,Bamial SO,Pathankot,Punjab,32.29,75.38
145029,Shahpur Kandi Township SO,Pathankot,Punjab,32.043274,75.39888
145101,Mirthal SO,Pathankot,Punjab,32.043274,75.39888
146001,Hoshiarpur HO,Hoshiarpur,Punjab,31.515963,75.904004
146021,Bassi Gulam Hussain BO,Hoshiarpur,Punjab,31.25,75.41
146022,Dagana Kalan BO,Hoshiarpur,Punjab,30.82,75.85
146023,Nangal Shahidan BO,Hoshiarpur,Punjab,31.24,74.63
146024,Mustapur BO,Hoshiarpur,Punjab,31.25,74.89
146101,Bombeli BO,Hoshiarpur,Punjab,31.06,75.84
146102,Bachhohi BO,Hoshiarpur,Punjab,31.02,75.96
146103,Jangliana BO,Hoshiarpur,Punjab,31.21,75.45
146104,Lehli Kalan BO,Hoshiarpur,Punjab,31.02,75.46
146105,Bahowal BO,Hoshiarpur,Punjab,31.45,75.414
146106,Ganeshpur Bharta BO,Hoshiarpur,Punjab,31.47,75.52
146107,Hakumatpur BO,Hoshiarpur,Punjab,30.29,74.98
146108,Pandori  Ganga Singh BO,Hoshiarpur,Punjab,30.56,75.56
146109,Muggowal BO,Hoshiarpur,Punjab,30.57,74.69
146110,Jahan Khelan BO,Hoshiarpur,Punjab,31.24,75.23
146111,Ajram BO,Hoshiarpur,Punjab,31.05,75.46
146112,Pandorikad BO,Hoshiarpur,Punjab,31.04,75.15
146113,Lachowal BO,Hoshiarpur,Punjab,31.46,75.48
146114,Mundian Jattan BO,Hoshiarpur,Punjab,31.45,75.42
146115,Kalubahar BO,Hoshiarpur,Punjab,31.25,75.89
146116,Ghorewaha BO,Hoshiarpur,Punjab,31.12,75.13
147001,Ragho Majra Patiala SO,Patiala,Punjab,30.3180278,76.3956667
147002,Urban Estate SO,Patiala,Punjab,30.34,76.43
147003,Gurbax Colony SO,Patiala,Punjab,30.3414444,76.4133889
147004,Dukhniwaran SO,Patiala,Punjab,30.3456667,76.3475
147005,Ranbirpura BO,Patiala,Punjab,30.32,76.32
147006,RGNUL Punjab Patiala SO,Patiala,Punjab,30.33,76.38
147007,Dakala BO,Patiala,Punjab,30.22,76.35
147008,Nodal Delivery Center (Parcel)  Patiala,Patiala,Punjab,30.334,76.386
147021,Chappar BO,Patiala,Punjab,30.33,76.41
147101,Bibipur BO,Patiala,Punjab,29.24,76.28
147102,Buzark BO,Patiala,Punjab,24.36,88.05
147103,Bhankher BO,Patiala,Punjab,30.27,76.52
147104,Roorki BO,Fatehgarh Sahib,Punjab,30.33,76.58
147105,Gulzarpura BO,Patiala,Punjab,29.85,76.17
147111,Gharam BO,Patiala,Punjab,30.11,76.49
147201,Babarpur BO,Patiala,Punjab,28.62,77.23
147202,Agol BO,Patiala,Punjab,30.45,76.2
147203,Noorpur BO,Fatehgarh Sahib,Punjab,30.36,76.37
147301,Kumbh BO,Fatehgarh Sahib,Punjab,30.63,76.28
148001,N G M Sangrur SO,Sangrur,Punjab,30.2416667,75.8326667
148002,Bahadurpur BO,Sangrur,Punjab,26.109872,85.907085
148017,Harchandpur BO,Sangrur,Punjab,26.344153,81.166481
148018,Kandhargarh BO,Sangrur,Punjab,30.371303,75.982607
148019,Bhogiwal BO,Malerkotla,Punjab,30.588006,75.875181
148020,Khurd BO,Malerkotla,Punjab,9.571769,76.661485
148021,Maholi Kalan BO,Malerkotla,Punjab,30.62427,75.757499
148022,Banbhaura BO,Malerkotla,Punjab,30.466599,75.950678
148023,Haider Nagar BO,Malerkotla,Punjab,14.13131,16.152125
148024,Badshahpur BO,Sangrur,Punjab,28.398271,77.053568
148025,Guram BO,Barnala,Punjab,30.119954,76.476552
148026,Alloarakh BO,Sangrur,Punjab,23.030176,72.584808
148027,Mandvi BO,Sangrur,Punjab,22.833334,69.355478
148028,Dharamgarh BO,Sangrur,Punjab,19.871715,82.775162
148029,Cheema SO,Sangrur,Punjab,30.0990278,75.68125
148030,Lad Banjara BO,Sangrur,Punjab,29.989595,75.982607
148031,Phalera BO,Sangrur,Punjab,12.4545,45.646
148033,Bangan BO,Sangrur,Punjab,9.066667,0.7
148034,Hassanpur BO,Sangrur,Punjab,27.965739,77.498875
148035,Kamalpur BO,Sangrur,Punjab,24.196876,91.833053
148100,Bakhatgarh BO,Barnala,Punjab,22.963283,75.20227
148101,Raisar BO,Barnala,Punjab,28.051003,73.481364
148102,Talwandi BO,Barnala,Punjab,25.150211,75.842496
148103,Jodhpur BO,Barnala,Punjab,26.238947,73.024309
148104,Chhapa BO,Barnala,Punjab,23.087051,72.666335
148105,Harigarh BO,Barnala,Punjab,24.579886,73.68042
148106,Badbar BO,Barnala,Punjab,12.4545,12.57575
148107,Dhaula BO,Barnala,Punjab,30.161562,74.568297
148108,Pakho Kalan BO,Barnala,Punjab,26.455234,84.234466
148109,Chauhan Ke Kalan BO,Barnala,Punjab,28.683689,77.261925
151001,Kamla Nehru Colony Bathinda SO,Bathinda,Punjab,30.160259,74.891122
151002,Gndtp Bathinda SO,Bathinda,Punjab,30.160259,74.891122
151003,Nfl Bathinda SO,Bathinda,Punjab,30.160259,74.891122
151004,Bathinda Cantt SO,Bathinda,Punjab,30.160259,74.891122
151005,Sardargarh BO,Bathinda,Punjab,25.2331,73.9889
151006,NDC Bathinda,Bathinda,Punjab,30.2046,74.949
151101,Jhanduke BO,Bathinda,Punjab,29.7514,75.344
151102,Nathana SO,Bathinda,Punjab,30.160259,74.891122
151103,Rampura Mandi SO,Bathinda,Punjab,30.160259,74.891122
151104,Phul SO,Bathinda,Punjab,30.160259,74.891122
151105,Mehraj SO,Bathinda,Punjab,30.160259,74.891122
151106,Bhai Rupa SO,Bathinda,Punjab,30.160259,74.891122
151108,Ramu Wala Jalalka BO,Bathinda,Punjab,30.1491,75.185
151111,Ghtp Lehra Mohabbat SO,Bathinda,Punjab,30.160259,74.891122
151201,Bhokhra BO,Bathinda,Punjab,25.0055,83.6707
151202,Kasam Bhatti BO,Faridkot,Punjab,30.1203496,31.3192978
151203,Faridkot HO,Faridkot,Punjab,30.666212,74.740482
151204,Dhaipai BO,Faridkot,Punjab,30.5076123,74.830084
151205,Seda Singh Wala BO,Faridkot,Punjab,30.43677,74.99656
151206,Hamirgarh BO,Bathinda,Punjab,25.1882,74.6269
151207,Ghanianwala BO,Faridkot,Punjab,30.4170762,75.0326278
151208,Bambhia Bhai Ka BO,Moga,Punjab,30.131256,74.7095492
151209,Dhimanwali BO,Faridkot,Punjab,30.581829,74.832054
151210,Aspal BO,Sri Muktsar Sahib,Punjab,30.1891819,74.505307
151211,Lohara BO,Sri Muktsar Sahib,Punjab,30.060955,74.612825
151212,Deep Singh Wala BO,Faridkot,Punjab,30.14212,75.18981
151213,Sukhan Wala BO,Faridkot,Punjab,30.6455,74.7365
151214,Pakhi Kalan BO,Faridkot,Punjab,30.4621715,79.4454132
151301,Giana BO,Bathinda,Punjab,29.8897,75.0078
151302,Kalal Wala BO,Bathinda,Punjab,28.8165,75.1347
151401,Pathrala BO,Bathinda,Punjab,30.0003,74.7527
151501,Kulrian BO,Mansa,Punjab,29.8187,75.6837
151502,Kulana BO,Mansa,Punjab,29.1495,75.9071
151503,Reond Kalan BO,Mansa,Punjab,29.7736,75.5873
151504,Dalel Singh Wala BO,Mansa,Punjab,30.0263,75.4778
151505,Jaurkian BO,Mansa,Punjab,29.8426,75.2071
151506,Adamke BO,Mansa,Punjab,29.7124,75.3245
151507,Sangha BO,Mansa,Punjab,29.5755,75.2661
151508,Moosa BO,Mansa,Punjab,29.9784,75.3194
151509,Kutti Wal Kalan BO,Bathinda,Punjab,30.0316,75.2401
151510,Ralla BO,Mansa,Punjab,30.1196,75.4333
152001,Cantt Railway Station Ferozepu SO,Firozepur,Punjab,30.927546,74.610497
152002,Sabzi Mandi Ferozepur City SO,Firozepur,Punjab,30.927546,74.610497
152003,Dhira Patra BO,Firozepur,Punjab,30.99155,74.6133
152004,Dastul Sahib BO,Firozepur,Punjab,29.97117,74.57624
152005,Sandhe Hasham BO,Firozepur,Punjab,29.97117,74.57624
152020,Chak Sotrian BO,Fazilka,Punjab,30.37395,74.03525
152021,Kamal Wala BO,Firozepur,Punjab,30.0712258,31.2801927
152022,Ranjitgarh BO,Firozepur,Punjab,30.614647,74.4400957
152023,Khunder Uttar BO,Firozepur,Punjab,30.8285864,74.3994182
152024,Ladhuwala Uttar BO,Fazilka,Punjab,30.56734,74.24597
152025,Khokhar BO,Sri Muktsar Sahib,Punjab,30.468446,74.517472
152026,Goniana Village BO,Sri Muktsar Sahib,Punjab,30.3199126,74.9179393
152028,Mansoor Deva BO,Firozepur,Punjab,30.50978,74.3699
152031,Chhattiana BO,Sri Muktsar Sahib,Punjab,30.3305771,74.668028
152032,Bam BO,Sri Muktsar Sahib,Punjab,30.3558497,74.3396085
152033,Khuranj BO,Fazilka,Punjab,30.4598942,74.2876132
152101,Channu BO,Sri Muktsar Sahib,Punjab,30.0944111,74.6076333
152107,Chappianwali BO,Sri Muktsar Sahib,Punjab,30.1891849,74.505304
152112,Badian BO,Sri Muktsar Sahib,Punjab,30.1891829,74.505306
152113,Fatuhi Khera BO,Sri Muktsar Sahib,Punjab,30.0579247,73.8610071
152114,Adhnian BO,Sri Muktsar Sahib,Punjab,30.060956,74.612824
152115,Tarmala BO,Sri Muktsar Sahib,Punjab,30.060956,74.612824
152116,Patti Sadiq BO,Fazilka,Punjab,29.99,74.11
152117,Bahadur Khera BO,Fazilka,Punjab,30.1576,74.33157
152118,Dutaran Wala BO,Fazilka,Punjab,30.15515,74.2034
152121,Kamal Wala BO,Fazilka,Punjab,30.0712258,31.2801927
152122,Churiwala Dhanna BO,Fazilka,Punjab,30.2039719,74.1104938
152123,Karni Khera BO,Fazilka,Punjab,30.37395,74.03525
152124,Mahuana Bodla BO,Fazilka,Punjab,30.1073691,74.5624261
152128,Khuiyan Server SO,Fazilka,Punjab,30.1417,74.0112
152132,Usman Khera BO,Fazilka,Punjab,30.04488,73.98143
160001,High Court SO Chandigarh,Chandigarh,Chandigarh,30.7573,76.8066
160002,Ind Area Chandigarh SO,Chandigarh,Chandigarh,30.6903611,76.7942222
160003,Aerodrome SO,Chandigarh,Chandigarh,30.6765278,76.7947778
160004,Airforce Highground SO,Chandigarh,Chandigarh,30.6473056,76.7890278
160005,IBC CHANDGIARH SO,Chandigarh,Chandigarh,30.9666111,76.3715277
160006,NDC Chandigarh,Chandigarh,Chandigarh,30.742,76.7834
160009,Sector 8Chandgarh SO,Chandigarh,Chandigarh,30.7406944,76.79725
160011,Sector 10 Chandigarh SO,Chandigarh,Chandigarh,30.7535278,76.7876111
160012,Sector 12 Chandigarh SO,Chandigarh,Chandigarh,30.7420833,76.7833611
160014,Behlolpur BO,Chandigarh,Chandigarh,30.692051,76.69841
160015,Sector 16 Chandigarh SO,Chandigarh,Chandigarh,30.7472778,76.7753611
160016,NODAL DELIVERY  SPEED POST  CHANDIGARH,Chandigarh,Chandigarh,30.692051,76.69841
160017,Chandigarh GPO,Chandigarh,Chandigarh,30.7420833,76.7833611
160018,Sector 18 Chandigarh SO,Chandigarh,Chandigarh,30.7354722,76.7874444
160019,Sector 27ChandigarhSO,Chandigarh,Chandigarh,30.72267,76.79825
160020,Sector 20 Chandigarh SO,Chandigarh,Chandigarh,30.7420833,76.7833611
160022,Sector 34Chandigarh SO,Chandigarh,Chandigarh,30.7170278,76.7669722
160023,Sector 23  Chandigarh SO,Chandigarh,Chandigarh,30.7396389,76.7670278
160025,Maloya Colony SO,Chandigarh,Chandigarh,30.7529722,75.7185
160030,Sector 29 Chandigarh SO,Chandigarh,Chandigarh,30.7113611,76.7906389
160036,Badheri BO,Chandigarh,Chandigarh,30.692051,76.69841
160043,Sector43 Chandigarh,Chandigarh,Chandigarh,30.7420833,76.7833611
160047,Burail BO,Chandigarh,Chandigarh,30.692051,76.69841
160055,Daon BO,S.A.S Nagar,Punjab,30.692051,76.69841
160059,Chandigarh Sector 60 SO,S.A.S Nagar,Punjab,30.73455,76.78615
160062,Chandigarh Sector 65 SO,S.A.S Nagar,Punjab,30.6762222,76.7421111
160071,Chandigarh Sector 71 SO,S.A.S Nagar,Punjab,30.9666111,73.53025
160101,Kishangarh BO,Chandigarh,Chandigarh,30.692051,76.69841
160102,Raipur Kalan BO,Chandigarh,Chandigarh,30.692051,76.69841
160103,Naya Gaon SO Mohali,S.A.S Nagar,Punjab,30.692051,76.69841
160104,Dhakaoli SO,S.A.S Nagar,Punjab,30.692051,76.69841
171001,CPRI SO,Shimla,Himachal Pradesh,31.0966667,77.1714167
171002,HPSectt SO,Shimla,Himachal Pradesh,31.08725,77.1807222
171003,Kaithu BO,Shimla,Himachal Pradesh,30.913,77.49
171004,Ambedkarchowk SO,Shimla,Himachal Pradesh,31.1034444,77.1536667
171005,Summerhill SO,Shimla,Himachal Pradesh,30.9645833,77.1109722
171006,Poabo BO,Shimla,Himachal Pradesh,31.1001,77.197
171007,Pahal BO,Shimla,Himachal Pradesh,31.02503,77.406037
171008,Jutogh SO,Shimla,Himachal Pradesh,31.1045556,77.10925
171009,New Shimla SO,Shimla,Himachal Pradesh,31.078,77.1686
171010,Tara Devi SO,Shimla,Himachal Pradesh,31.0765556,77.1394167
171011,Rampur Keonthal BO,Shimla,Himachal Pradesh,30.913,77.497
171012,Maloothi BO,Shimla,Himachal Pradesh,30.9101,77.4006
171013,Beolia BO,Shimla,Himachal Pradesh,31.11765,77.45277
171014,Kanda BO,Shimla,Himachal Pradesh,12.168,77.1807242
171015,Baldeyan SO,Shimla,Himachal Pradesh,31.1669,77.1746
171018,Kariali BO,Shimla,Himachal Pradesh,30.913,77.129
171019,Dharogra BO,Shimla,Himachal Pradesh,31.013,77.119
171102,Nagaon BO,Solan,Himachal Pradesh,30.904486,77.096736
171103,Dhami SO,Shimla,Himachal Pradesh,31.1861389,77.0355278
171201,Sarog BO,Shimla,Himachal Pradesh,30.901,77.48
171202,Garog BO,Shimla,Himachal Pradesh,30.913025,77.129462
171203,Ghasani BO,Shimla,Himachal Pradesh,30.701,77.319
171204,Panog BO,Shimla,Himachal Pradesh,30.91345,77.12956
171205,Kayana BO,Shimla,Himachal Pradesh,30.9134256,77.129658
171206,Anti BO,Shimla,Himachal Pradesh,30.113,77.306
171207,Kuthara BO,Shimla,Himachal Pradesh,30.2521,77.236
171208,Tangnu BO,Shimla,Himachal Pradesh,31.0258,77.40678
171209,Tiyali BO,Shimla,Himachal Pradesh,31.02569,77.12925
171210,Telar BO,Shimla,Himachal Pradesh,12.16825,77.40658
171211,Chambi BO,Shimla,Himachal Pradesh,30.313,77.40666
171212,Nagjubber BO,Shimla,Himachal Pradesh,31.2,77.42
171213,Khunni BO,Shimla,Himachal Pradesh,31.215,77.235
171214,Devidhar BO,Shimla,Himachal Pradesh,30.913,77.12958
171215,Mandhole SO,Shimla,Himachal Pradesh,31.1088795,77.6664896
171216,Jhalta BO,Shimla,Himachal Pradesh,31.21002,77.406963
171217,Bhalu BO,Shimla,Himachal Pradesh,30.9169,77.409676
171218,Junga SO,Shimla,Himachal Pradesh,31.0238333,77.1908333
171219,Salana BO,Shimla,Himachal Pradesh,31.021,77.123
171220,Deothibalson BO,Shimla,Himachal Pradesh,30.91,77.4039
171221,Dodra BO,Shimla,Himachal Pradesh,31.2102,77.4006
171222,Chikar BO,Shimla,Himachal Pradesh,12.168,77.1065556
171223,Arhal SO,Shimla,Himachal Pradesh,31.2086944,77.7001111
171224,Summer Kot SO,Shimla,Himachal Pradesh,31.2825556,77.6997778
171225,Ratnari BO,Shimla,Himachal Pradesh,31.0323,77.4069
171226,Kuthar BO,Shimla,Himachal Pradesh,30.91,77.409
171301,Mandhor Ghat BO,Shimla,Himachal Pradesh,31.241,77.1212
172001,Kungal Balti BO,Shimla,Himachal Pradesh,31.2743152,77.6387666
172002,Shamani BO,Kullu,Himachal Pradesh,31.4225376,77.5762633
172021,Nankhari SO,Shimla,Himachal Pradesh,31.30929,77.58343
172022,Nogli SO,Shimla,Himachal Pradesh,31.39198,77.64039
172023,Nirmand SO,Kullu,Himachal Pradesh,31.42253,77.57627
172024,Janjheli BO,Shimla,Himachal Pradesh,31.31537,77.4147
172025,Dehar BO,Kullu,Himachal Pradesh,31.16755,77.531
172026,Kothi BO,Kullu,Himachal Pradesh,31.4284,77.69485
172027,Shiwan BO,Shimla,Himachal Pradesh,31.31268,77.36185
172028,Delath SO,Shimla,Himachal Pradesh,31.33668,77.55055
172029,Sharambal Camp BO,Shimla,Himachal Pradesh,31.307,77.457
172030,Kirti BO,Shimla,Himachal Pradesh,31.3182759,77.4458101
172031,Kotgarh SO,Shimla,Himachal Pradesh,31.31137,77.47449
172032,Chowai SO,Kullu,Himachal Pradesh,31.44272,77.44224
172033,Tandi BO,Kullu,Himachal Pradesh,31.34745,77.642
172034,Bonda SO,Shimla,Himachal Pradesh,31.61723,77.78191
172101,Labana BO,Shimla,Himachal Pradesh,31.4715,77.6843
172102,Sarahan BSR SO,Shimla,Himachal Pradesh,31.46325,77.8048
172103,Nichar SO,Kinnaur,Himachal Pradesh,31.5551944,77.9768056
172104,Mirro BO,Kinnaur,Himachal Pradesh,31.48299,78.0856
172105,Sapni BO,Kinnaur,Himachal Pradesh,31.4254909,78.2649906
172106,Chansu BO,Kinnaur,Himachal Pradesh,31.29055,78.60546
172107,Pangi BO,Kinnaur,Himachal Pradesh,31.536488,78.2568173
172108,Kalpa SO,Kinnaur,Himachal Pradesh,31.53766,78.27538
172109,Kunnu BO,Kinnaur,Himachal Pradesh,31.5446,78.62453
172110,Nesang BO,Kinnaur,Himachal Pradesh,31.6463368,78.520999
172111,Gue BO,Lahul And Spiti,Himachal Pradesh,31.537658,78.275378
172112,Hango BO,Kinnaur,Himachal Pradesh,31.8286851,78.5401704
172113,Dhanker BO,Lahul And Spiti,Himachal Pradesh,32.0909872,78.2278556
172114,Demul BO,Lahul And Spiti,Himachal Pradesh,32.1448367,78.1735438
172115,Bari BO,Kinnaur,Himachal Pradesh,31.5581455,77.9467331
172116,Ribba SO,Kinnaur,Himachal Pradesh,31.57814,78.35578
172117,Mud BO,Lahul And Spiti,Himachal Pradesh,31.999504,77.8824441
172118,Katgaon SO,Kinnaur,Himachal Pradesh,31.59289,78.03822
172201,Jhakri SO,Shimla,Himachal Pradesh,31.49724,77.70801
173001,Haripur Khol BO,Sirmaur,Himachal Pradesh,30.4607971,77.3879622
173021,Misserwala BO,Sirmaur,Himachal Pradesh,30.4768835,77.5476117
173022,Bharog Baneri BO,Sirmaur,Himachal Pradesh,30.5497572,77.5103446
173023,Sangrah SO,Sirmaur,Himachal Pradesh,30.6957222,77.4257222
173024,Sarsoo BO,Sirmaur,Himachal Pradesh,30.7204985,77.1875002
173025,Bata Mandi BO,Sirmaur,Himachal Pradesh,30.4248004,77.5770026
173026,Kw Bhood SO,Sirmaur,Himachal Pradesh,30.6166944,77.1834722
173027,Shillai SO,Sirmaur,Himachal Pradesh,30.6996944,77.6684444
173029,Sharlimanpur BO,Sirmaur,Himachal Pradesh,30.445283,77.6020569
173030,Kala Amb SO,Sirmaur,Himachal Pradesh,30.4983056,77.211
173031,Dhualakuan,Sirmaur,Himachal Pradesh,30.5623333,77.2933889
173032,Haripurdhar,Sirmaur,Himachal Pradesh,30.5623333,77.2933889
173101,Rajgarh Siramur SO,Sirmaur,Himachal Pradesh,30.5623333,77.2933889
173104,Lanacheta BO,Sirmaur,Himachal Pradesh,30.6957312,77.4257319
173201,Garkhal SO,Solan,Himachal Pradesh,30.9018056,76.5641389
173202,Sanawar SO,Solan,Himachal Pradesh,30.9019722,76.9940556
173204,Kasauli MT BO,Solan,Himachal Pradesh,30.9015,76.9645277
173205,Sai BO,Solan,Himachal Pradesh,30.904486,77.096736
173206,Dhakriana BO,Solan,Himachal Pradesh,30.904486,77.096736
173207,Sayri BO,Solan,Himachal Pradesh,30.904486,77.096736
173208,Manjhyat BO,Solan,Himachal Pradesh,30.904486,77.096736
173209,Rouri BO,Solan,Himachal Pradesh,30.904486,77.096736
173210,Dagshai SO,Solan,Himachal Pradesh,30.8782222,77.0581944
173211,Barog RSBO,Solan,Himachal Pradesh,30.890262,77.072202
173212,Damkari BO,Solan,Himachal Pradesh,30.904486,77.096736
173213,Dharot BO,Solan,Himachal Pradesh,30.904486,77.096736
173214,Salogra BO,Solan,Himachal Pradesh,30.904486,77.096736
173215,Sadhupul BO,Solan,Himachal Pradesh,30.904486,77.096736
173217,Peeran BO,Shimla,Himachal Pradesh,30.5623333,77.096736
173218,Katal BO,Solan,Himachal Pradesh,30.904486,77.096736
173220,Sector2 Parwanoo SO,Solan,Himachal Pradesh,30.8372,76.9614
173221,Kunhar BO,Solan,Himachal Pradesh,30.904486,77.096736
173222,Mamlig SO,Solan,Himachal Pradesh,31.0546944,77.0245833
173223,Karganoo Sanora BO,Sirmaur,Himachal Pradesh,30.5628455,77.4701972
173225,Kot BO,Solan,Himachal Pradesh,30.904486,77.096736
173229,Panwa BO,Sirmaur,Himachal Pradesh,30.5628455,77.4701972
173230,Nauni SO,Solan,Himachal Pradesh,30.8591111,77.1685833
173233,Ekhoo BO,Solan,Himachal Pradesh,30.904486,77.096736
173234,Domeharbani BO,Solan,Himachal Pradesh,30.904486,77.096736
173235,Saryanj BO,Solan,Himachal Pradesh,30.904486,77.096736
173236,Kuthar SO,Solan,Himachal Pradesh,30.9731,76.9672
174001,Deoth BO,Bilaspur,Himachal Pradesh,31.2448,76.8122
174002,Majri BO,Bilaspur,Himachal Pradesh,30.9613,76.8607
174003,Bararhin BO,Bilaspur,Himachal Pradesh,31.4187,76.6427
174004,Bhater Nichli BO,Bilaspur,Himachal Pradesh,31.3335,76.5401
174005,Raghunath Pura SO,Bilaspur,Himachal Pradesh,31.3121,76.7613
174011,Jamli BO,Bilaspur,Himachal Pradesh,31.2292,76.7769
174012,Bauhat Kasol BO,Bilaspur,Himachal Pradesh,31.3693,76.8677
174013,Barmana SO,Bilaspur,Himachal Pradesh,31.4152,76.8276
174015,Lakhnoo BO,Bilaspur,Himachal Pradesh,31.226,76.6123
174017,Salwar BO,Bilaspur,Himachal Pradesh,31.27879,76.6443
174021,Samoh BO,Bilaspur,Himachal Pradesh,31.3955,76.6889
174023,Dangar BO,Bilaspur,Himachal Pradesh,31.5192,76.6318
174024,Auhar SO,Bilaspur,Himachal Pradesh,31.2788,76.656
174026,Morsinghi BO,Bilaspur,Himachal Pradesh,31.4921,76.7069
174027,Gahar BO,Bilaspur,Himachal Pradesh,31.3879,76.8302
174028,Kot BO,Bilaspur,Himachal Pradesh,31.2668,76.7466
174029,Malagan BO,Bilaspur,Himachal Pradesh,31.3904,76.6138
174030,Tallai SO,Bilaspur,Himachal Pradesh,31.3427,76.7656
174031,Rohal BO,Bilaspur,Himachal Pradesh,31.3492,76.6484
174032,Namhol SO,Bilaspur,Himachal Pradesh,31.2558,76.8597222
174033,Suin Surhar BO,Bilaspur,Himachal Pradesh,31.2966,76.9198
174034,Matla BO,Bilaspur,Himachal Pradesh,31.306,76.6918
174035,Malraon BO,Bilaspur,Himachal Pradesh,31.3156,76.5965
174036,NTPC Jamthal SO,Bilaspur,Himachal Pradesh,31.383,76.8711
174101,Rajpura BO,Solan,Himachal Pradesh,30.904486,77.096736
174102,Bhiyunkhari BO,Solan,Himachal Pradesh,30.904486,77.096736
174103,Surajpur BO,Solan,Himachal Pradesh,30.898908,76.964692
174201,Kanphara BO,Bilaspur,Himachal Pradesh,31.3429,76.5228
174301,Sanouli BO,Una,Himachal Pradesh,31.3491987,76.3402507
174302,Batuhi BO,Una,Himachal Pradesh,31.543333,76.232004
174303,Jankaur BO,Una,Himachal Pradesh,31.425421,76.277365
174304,Bani SO HamirpurHP,Hamirpur,Himachal Pradesh,31.5281667,76.4634167
174305,Jhanjiani BO,Hamirpur,Himachal Pradesh,31.4578,76.5119
174306,Badehar BO,Una,Himachal Pradesh,31.421736,76.303507
174307,Dohgi Upperli BO,Una,Himachal Pradesh,31.596919,76.376362
174308,Budhan BO,Una,Himachal Pradesh,31.520405,76.424086
174309,Bahina SO,Hamirpur,Himachal Pradesh,31.4956,76.5083
174310,Swahan BO,Bilaspur,Himachal Pradesh,31.2392,76.6537
174311,Sohari BO,Hamirpur,Himachal Pradesh,31.5447,76.526
174312,Chhatoli Rajputan BO,Hamirpur,Himachal Pradesh,31.5243,76.4564
174314,Ambehra Dhiraj BO,Una,Himachal Pradesh,31.605947,76.255989
174315,Raipur Sahoran BO,Una,Himachal Pradesh,31.3948598,76.3260233
174316,Hamboli BO,Una,Himachal Pradesh,31.587403,76.182685
174317,Bhadsali SO,Una,Himachal Pradesh,31.4778889,76.1735
174319,Ganu BO,Una,Himachal Pradesh,31.7829338,75.9707456
174320,Talmehra SO,Una,Himachal Pradesh,31.6511667,76.2725556
174321,Paroian BO,Una,Himachal Pradesh,31.429436,76.437884
174405,Gahli Kohlwin BO,Hamirpur,Himachal Pradesh,31.5923,76.4595
174503,Polian Beet BO,Una,Himachal Pradesh,31.351492,76.201571
174505,Changar BO,Hamirpur,Himachal Pradesh,31.6228,76.5069
174507,Bathri BO,Una,Himachal Pradesh,31.3492,76.2682
175001,Kotmorse BO,Mandi,Himachal Pradesh,31.65,77.0
175002,Kaloud BO,Mandi,Himachal Pradesh,31.53,76.88
175003,Kot BO Kotli,Mandi,Himachal Pradesh,31.6989558,76.7324084
175004,Bhambla SO,Mandi,Himachal Pradesh,31.5921389,76.7348889
175005,Batheri BO,Mandi,Himachal Pradesh,31.708256,76.931376
175006,Gagal SO,Mandi,Himachal Pradesh,31.6285556,76.9617222
175007,Hari Behna BO,Mandi,Himachal Pradesh,31.708256,76.931376
175008,Balt BO,Mandi,Himachal Pradesh,31.588566,76.875608
175009,Tattapani SO,Mandi,Himachal Pradesh,31.2475278,77.0890556
175010,Kanda Churag  BO,Mandi,Himachal Pradesh,31.32,77.17
175011,Mehndi BO,Mandi,Himachal Pradesh,31.33,77.28
175012,Ropa BO,Mandi,Himachal Pradesh,31.8,76.9
175013,Deot BO,Kangra,Himachal Pradesh,31.708256,76.931376
175014,Kurati BO,Mandi,Himachal Pradesh,31.708256,76.931376
175015,Bhararu BO,Mandi,Himachal Pradesh,31.708256,76.931376
175016,Panjalag BO,Mandi,Himachal Pradesh,31.708256,76.931376
175017,Dhawal BO,Mandi,Himachal Pradesh,31.41,76.87
175018,Sunder Nagar1 SO,Mandi,Himachal Pradesh,31.5096667,76.8841111
175019,Sunder Nagar Township HO,Mandi,Himachal Pradesh,31.53257,76.90567
175020,Gumma (Mandi) S.O,Mandi,Himachal Pradesh,31.9639,76.8523
175021,Bhangrotu SO,Mandi,Himachal Pradesh,31.611,76.9197778
175023,Patrighat BO,Mandi,Himachal Pradesh,31.59,76.8
175024,Paunta BO,Mandi,Himachal Pradesh,31.62,76.74
175025,Gharwasra BO,Mandi,Himachal Pradesh,31.75,76.72
175026,Kangu Ka Gehra BO,Mandi,Himachal Pradesh,31.72,76.67
175027,Syanji BO,Mandi,Himachal Pradesh,31.51,76.95
175028,Shala BO,Mandi,Himachal Pradesh,31.53,77.03
175029,Sayanj BO,Mandi,Himachal Pradesh,31.34,77.32
175030,Baroti BO,Mandi,Himachal Pradesh,31.42,76.82
175031,Jhungi BO,Mandi,Himachal Pradesh,31.4,77.11
175032,Golwan BO,Mandi,Himachal Pradesh,31.708256,76.931376
175033,Baldwara SO,Mandi,Himachal Pradesh,31.5572778,76.7642222
175034,Bachwan BO,Mandi,Himachal Pradesh,31.48,76.8
175035,Bagsaid SO,Mandi,Himachal Pradesh,31.5613889,77.1236111
175036,Leda BO,Mandi,Himachal Pradesh,31.56,76.931376
175037,Sadhot BO,Mandi,Himachal Pradesh,31.711,76.691
175038,Balag BO,Mandi,Himachal Pradesh,31.03,77.37
175039,Jahal BO,Mandi,Himachal Pradesh,31.49,77.09
175040,Pehad BO,Mandi,Himachal Pradesh,31.708256,76.931376
175042,Darpa BO,Mandi,Himachal Pradesh,31.67,76.71
175045,Silhanu BO,Mandi,Himachal Pradesh,31.49,76.98
175046,Pressi BO,Mandi,Himachal Pradesh,31.34,77.1
175047,Sangalwara BO,Mandi,Himachal Pradesh,31.46,77.31
175048,Thunag SO,Mandi,Himachal Pradesh,31.5561111,77.1684444
175049,Jamni SO,Mandi,Himachal Pradesh,31.6461944,76.7915833
175050,Saklana BO,Mandi,Himachal Pradesh,31.6989558,76.7324084
175051,Seoh SO,Mandi,Himachal Pradesh,31.8656389,76.71275
175052,Baloh BO,Mandi,Himachal Pradesh,31.7,76.89
175075,Kamand SO,Mandi,Himachal Pradesh,31.77,76.98
175101,Peej BO,Kullu,Himachal Pradesh,31.95,77.09
175102,Bhalyani BO,Kullu,Himachal Pradesh,31.94,77.04
175103,Bahang SO,Kullu,Himachal Pradesh,32.2590833,77.1756944
175104,Archandi BO,Kullu,Himachal Pradesh,32.06,77.13
175105,Bradha BO,Kullu,Himachal Pradesh,31.96,77.26
175106,Ghaniar BO,Mandi,Himachal Pradesh,31.6,77.28
175121,Guran BO,Mandi,Himachal Pradesh,31.7,77.22
175123,Sojha BO,Kullu,Himachal Pradesh,31.56,77.37
175124,Nandi BO,Mandi,Himachal Pradesh,31.63,77.07
175125,Rahla BO,Mandi,Himachal Pradesh,31.82,77.11
175126,Kharihar BO,Kullu,Himachal Pradesh,31.88,77.08
175128,Shirad BO,Kullu,Himachal Pradesh,32.02,77.07
175129,Dobhi BO,Kullu,Himachal Pradesh,32.08,77.12
175130,Naggar SO,Kullu,Himachal Pradesh,32.1127222,77.1649444
175131,Manali SO Kullu,Kullu,Himachal Pradesh,31.9654722,77.1159722
175132,Mooling BO,Lahul And Spiti,Himachal Pradesh,32.513285,76.97552
175133,Lote SO Lahul  Spiti,Lahul And Spiti,Himachal Pradesh,32.572,77.0282778
175134,Bajahara BO,Kullu,Himachal Pradesh,31.74,77.35
175136,Haripur SO Kullu,Kullu,Himachal Pradesh,31.9654722,77.1159722
175138,Neoli BO,Kullu,Himachal Pradesh,31.97,77.13
175139,Jahalman SO,Lahul And Spiti,Himachal Pradesh,32.6371667,76.8474722
175140,Koksar BO,Lahul And Spiti,Himachal Pradesh,32.4141,77.235
175141,Thela BO,Kullu,Himachal Pradesh,31.84,77.23
175142,Trilokinath BO,Lahul And Spiti,Himachal Pradesh,32.68,76.69
175143,Khakhnal BO,Kullu,Himachal Pradesh,32.17,77.19
176001,Zamanabad BO,Kangra,Himachal Pradesh,31.119522,76.266015
176002,Tanda SO,Kangra,Himachal Pradesh,32.100477,76.307544
176021,Dhasoli BO,Kangra,Himachal Pradesh,31.413068,76.081629
176022,Golwan BO,Kangra,Himachal Pradesh,31.987048,76.697574
176023,Jhonkha Ratial BO,Kangra,Himachal Pradesh,32.088939,75.997118
176025,Khatiar BO,Kangra,Himachal Pradesh,31.991079,75.94229
176026,Bhater BO,Kangra,Himachal Pradesh,31.33354,76.540153
176027,Ludret BO,Kangra,Himachal Pradesh,32.017651,76.094301
176028,Maleta Bongta BO,Kangra,Himachal Pradesh,31.905287,76.193588
176029,Rajiana BO,Kangra,Himachal Pradesh,31.822021,76.245377
176030,Suder Lahar BO,Kangra,Himachal Pradesh,31.912124,76.313071
176031,Lagroo Abrol BO,Kangra,Himachal Pradesh,31.829682,76.277577
176032,Sialkar BO,Kangra,Himachal Pradesh,31.815504,76.425938
176033,Gathutar BO,Kangra,Himachal Pradesh,31.991561,76.14794
176036,Sudhangal BO,Kangra,Himachal Pradesh,31.794667,76.388326
176037,Sunhi SO,Kangra,Himachal Pradesh,32.027951,76.296577
176038,Jalari BO,Kangra,Himachal Pradesh,31.783847,76.000162
176039,Loharli BO,Hamirpur,Himachal Pradesh,31.4336,76.5731
176040,Mangnoti BO,Hamirpur,Himachal Pradesh,31.5303,76.5249
176041,Ropari BO,Hamirpur,Himachal Pradesh,31.4118,76.6288
176042,Ukhali BO,Hamirpur,Himachal Pradesh,31.5435,76.6199
176043,Saned BO,Hamirpur,Himachal Pradesh,31.579,76.6145
176044,Karohta BO,Hamirpur,Himachal Pradesh,31.5951,76.6607
176045,Jakhyol BO,Hamirpur,Himachal Pradesh,31.6148,76.6347
176047,Bhadrer BO,Kangra,Himachal Pradesh,31.780377,76.632607
176048,Jahu SO,Hamirpur,Himachal Pradesh,31.5931944,76.7170278
176049,Dhabiri BO,Hamirpur,Himachal Pradesh,31.4519,76.6111
176051,Sukhara Choudrian BO,Kangra,Himachal Pradesh,31.212097,75.914621
176052,Dadh BO,Kangra,Himachal Pradesh,32.146369,76.419067
176053,Sunhara BO,Kangra,Himachal Pradesh,32.086251,75.959586
176054,Kharat BO,Kangra,Himachal Pradesh,31.99,76.311111
176055,Barikalan BO,Kangra,Himachal Pradesh,31.0512513,76.654266
176056,Rajiana BO,Kangra,Himachal Pradesh,31.82228,76.245425
176057,Sukkar BO,Kangra,Himachal Pradesh,32.181956,76.326479
176058,Kural BO,Kangra,Himachal Pradesh,31.9866944,75.8574444
176059,Arth Jhikli BO,Kangra,Himachal Pradesh,32.091799,76.464985
176060,Jharet Jaggian BO,Kangra,Himachal Pradesh,32.070514,76.416536
176061,Sungal Tea Estate BO,Kangra,Himachal Pradesh,32.086484,76.5332
176062,Auc Palampur SO,Kangra,Himachal Pradesh,32.1031389,76.5510278
176063,Sagoor BO,Kangra,Himachal Pradesh,32.033933,76.613833
176064,Paraur SO,Kangra,Himachal Pradesh,31.0816111,76.4619444
176065,Rajhoon SO,Kangra,Himachal Pradesh,32.0285833,76.4052222
176066,Ghallour SO,Kangra,Himachal Pradesh,31.829682,76.277577
176067,Deogram BO,Kangra,Himachal Pradesh,32.062754,76.557493
176071,Bhullanaso SO,Kangra,Himachal Pradesh,31.9669444,76.6446944
176073,Bairhgat SO,Kangra,Himachal Pradesh,31.8930556,76.4880556
176075,Duhak SO,Kangra,Himachal Pradesh,31.5525,76.4712222
176076,Dagoh BO,Kangra,Himachal Pradesh,31.962302,76.622498
176077,Gunehar BO,Kangra,Himachal Pradesh,32.039785,76.738257
176081,Zandpur BO,Kangra,Himachal Pradesh,32.063764,76.616775
176082,Jagrup Nagar BO,Kangra,Himachal Pradesh,31.855899,76.515583
176083,Bhawarna SO,Kangra,Himachal Pradesh,31.58475,76.7225278
176084,Gharana BO,Kangra,Himachal Pradesh,31.952321,76.432447
176085,Nanaon BO,Kangra,Himachal Pradesh,32.036974,76.467154
176086,Kallon BO,Kangra,Himachal Pradesh,31.934705,76.516522
176087,Bhoura BO,Kangra,Himachal Pradesh,32.006063,76.5313
176088,Sansai BO,Kangra,Himachal Pradesh,31.918656,76.672876
176089,Maila BO,Kangra,Himachal Pradesh,31.877284,76.671836
176090,Kujabalh BO,Mandi,Himachal Pradesh,31.8,76.62
176091,Harsi BO,Kangra,Himachal Pradesh,31.877423,76.646
176092,Mundhi BO,Kangra,Himachal Pradesh,31.956072,76.460647
176093,Rohan BO,Kangra,Himachal Pradesh,31.847674,76.204787
176094,Jalag SO,Kangra,Himachal Pradesh,31.0580278,76.47275
176095,Vijaypur BO,Kangra,Himachal Pradesh,31.904824,76.609437
176096,Talwar BO,Kangra,Himachal Pradesh,31.892509,76.534077
176097,Barram Khurd BO,Kangra,Himachal Pradesh,31.883987,76.523533
176098,Bhatwan BO,Kangra,Himachal Pradesh,31.832285,76.45197
176101,Dheera SO,Kangra,Himachal Pradesh,31.0103889,76.4507778
176102,Maranda SO,Kangra,Himachal Pradesh,32.0398889,76.4960833
176103,Nadli BO,Kangra,Himachal Pradesh,32.01441,76.574831
176107,Kona BO,Kangra,Himachal Pradesh,31.900076,76.456353
176108,Bhaleth SO,Hamirpur,Himachal Pradesh,31.8287,76.6427
176109,Jangal Beri SO,Hamirpur,Himachal Pradesh,24.4505,90.8421
176110,Charot BO,Hamirpur,Himachal Pradesh,31.8025,76.5272
176111,Dhail BO,Hamirpur,Himachal Pradesh,31.6392,76.4146
176115,Haded BO,Kangra,Himachal Pradesh,32.055536,76.631956
176125,Bahi BO,Kangra,Himachal Pradesh,31.995246,76.644355
176128,Dhandhol BO,Kangra,Himachal Pradesh,31.93776,76.689334
176200,Khail BO,Kangra,Himachal Pradesh,31.562848,76.39773
176201,Thore BO,Kangra,Himachal Pradesh,31.870688,76.139243
176202,Kopra BO,Kangra,Himachal Pradesh,31.791872,76.345105
176203,Ladori SO,Kangra,Himachal Pradesh,31.3595833,75.9485278
176204,Gheta BO,Kangra,Himachal Pradesh,32.192268,75.862063
176205,Bahi Pathiar BO,Kangra,Himachal Pradesh,32.073845,76.211699
176206,Daraman BO,Kangra,Himachal Pradesh,32.10256,76.583085
176207,Kakroti BO,Chamba,Himachal Pradesh,32.26957,76.13852
176208,Nerti BO,Kangra,Himachal Pradesh,32.099803,76.269101
176209,Bandi BO,Kangra,Himachal Pradesh,32.091788,76.368793
176210,Thehar BO,Kangra,Himachal Pradesh,31.937769,76.654266
176211,Kukher BO,Kangra,Himachal Pradesh,32.373166,75.912716
176213,Sakoh BO,Kangra,Himachal Pradesh,32.188352,76.315966
176214,Shamirpur BO,Kangra,Himachal Pradesh,32.135822,76.237049
176215,Dharamsala HO,Kangra,Himachal Pradesh,32.2095278,76.3214444
176216,Kareri BO,Kangra,Himachal Pradesh,32.235441,76.324607
176217,Ansuhi BO,Kangra,Himachal Pradesh,32.190467,76.252981
176218,Khaniara SO,Kangra,Himachal Pradesh,32.21275,76.36725
176219,Mcleodganj SO,Kangra,Himachal Pradesh,32.2371388,76.3243333
176225,Bhonka BO,Kangra,Himachal Pradesh,32.104977,76.27431
176301,Bharari BO,Chamba,Himachal Pradesh,32.31914,76.0537
176302,Raipur BO,Chamba,Himachal Pradesh,21.2513844,81.6296413
176303,Bailly BO,Chamba,Himachal Pradesh,32.51004,76.15953
176304,Dalhousie SO,Chamba,Himachal Pradesh,32.53917,75.97073
176305,Dalhousie cantt,Chamba,Himachal Pradesh,32.54439,75.96516
176306,Dradha BO,Chamba,Himachal Pradesh,32.57146,75.98171
176308,Simni BO,Chamba,Himachal Pradesh,31.0808,76.80903
176309,Deol BO,Chamba,Himachal Pradesh,32.330741,76.550268
176310,Rangmehal SO,Chamba,Himachal Pradesh,32.55565,76.12728
176311,Bandla BO,Chamba,Himachal Pradesh,31.328177,76.789192
176312,Pantah BO,Chamba,Himachal Pradesh,32.553363,76.125808
176313,Hobar BO,Chamba,Himachal Pradesh,32.45344,75.9768
176314,Sarahan BO,Chamba,Himachal Pradesh,31.5167835,77.7938376
176315,Bharmour SO,Chamba,Himachal Pradesh,32.442,76.53909
176316,Tissa BO,Chamba,Himachal Pradesh,32.83034,76.15084
176317,Surangani SO,Chamba,Himachal Pradesh,32.72039,76.0812
176318,Luddu BO,Chamba,Himachal Pradesh,30.60665,77.26781
176319,Charori BO,Chamba,Himachal Pradesh,32.215374,75.860658
176320,Killor BO,Chamba,Himachal Pradesh,30.53146,77.82243
176321,Himgiri BO,Chamba,Himachal Pradesh,32.5376467,75.9645581
176323,Shunudeen BO,Chamba,Himachal Pradesh,31.589204,78.277513
176324,Koonr BO,Chamba,Himachal Pradesh,32.408792,76.360834
176325,Samleu SO,Chamba,Himachal Pradesh,32.60296,75.91439
176326,Bajoul BO,Chamba,Himachal Pradesh,32.286277,76.66726
176401,Bhogarwan BO,Kangra,Himachal Pradesh,32.075727,75.777737
176402,Raja Khasa BO,Kangra,Himachal Pradesh,32.175326,75.716796
176403,Thakurdwara BO,Kangra,Himachal Pradesh,31.98317,75.889363
176501,Amroh BO,Kangra,Himachal Pradesh,31.865437,75.941969
176502,Ghamroor SO,Kangra,Himachal Pradesh,31.953481,75.956484
176601,Gondpurbulla BO,Una,Himachal Pradesh,31.318507,76.210963
177001,Gandhi Chowk Hamirpur SO,Hamirpur,Himachal Pradesh,30.7145,76.5195
177005,Govt Degree College Hamirpur SO,Hamirpur,Himachal Pradesh,31.7,76.5207
177006,Kashmir SO,Hamirpur,Himachal Pradesh,31.6318,76.402
177007,Ree BO,Hamirpur,Himachal Pradesh,31.5907,76.4355
177020,Nareli BO,Hamirpur,Himachal Pradesh,31.5301,76.4953
177021,Bagwara SO,Hamirpur,Himachal Pradesh,31.12,76.6622
177022,Bhater BO,Hamirpur,Himachal Pradesh,31.433,76.5887
177023,Gawardu BO,Hamirpur,Himachal Pradesh,31.3143,76.5972
177024,Dhamrol BO,Hamirpur,Himachal Pradesh,31.6335,76.6925
177025,Tikkar BO,Hamirpur,Himachal Pradesh,31.6003,76.5087
177026,Bahal BO,Hamirpur,Himachal Pradesh,31.5802,76.449
177027,Karara BO,Hamirpur,Himachal Pradesh,31.7015,76.5462
177028,Bauru BO,Hamirpur,Himachal Pradesh,31.8125,76.5859
177029,Bharthian BO,Hamirpur,Himachal Pradesh,31.6438,76.5706
177031,Chulhari BO,Una,Himachal Pradesh,31.443007,76.40054
177033,Kaloor BO,Hamirpur,Himachal Pradesh,31.7627,76.3195
177034,Tikkar BO,Kangra,Himachal Pradesh,31.190647,77.626764
177038,Bhiambi BO,Una,Himachal Pradesh,31.6854,76.3403
177039,Sohari SO,Una,Himachal Pradesh,31.5446667,76.527
177040,Kangoo SO,Hamirpur,Himachal Pradesh,31.689,76.4201
177041,Dhaneta SO,Hamirpur,Himachal Pradesh,31.6323056,76.4571667
177042,Ghaloon BO,Hamirpur,Himachal Pradesh,31.6503,76.3536
177043,Saleti BO,Kangra,Himachal Pradesh,31.719004,76.25805
177044,Bara SO HamirpurHP,Hamirpur,Himachal Pradesh,31.5281667,76.5747
177045,Rail SO,Hamirpur,Himachal Pradesh,31.7425,76.4165
177048,Dangri BO,Hamirpur,Himachal Pradesh,30.74,76.3738
177101,Dehra HO,Kangra,Himachal Pradesh,32.003666,76.176777
177103,Karoa BO,Kangra,Himachal Pradesh,31.849001,76.189242
177104,Nalsuha BO,Kangra,Himachal Pradesh,31.819671,76.182721
177105,Beh BO,Kangra,Himachal Pradesh,31.852934,76.117499
177106,Gurnwar BO,Kangra,Himachal Pradesh,31.849748,76.195218
177107,Lag Baliana BO,Kangra,Himachal Pradesh,31.82286,76.211699
177108,Sehri BO,Kangra,Himachal Pradesh,31.792706,76.206458
177109,Suhin BO,Una,Himachal Pradesh,31.75136,76.113336
177110,Dhalwari BO,Una,Himachal Pradesh,31.791735,76.089465
177111,Khanpur BO,Kangra,Himachal Pradesh,31.856414,75.995667
177112,Tipri SO,Kangra,Himachal Pradesh,31.861517,76.009416
177113,Chanour SO,Kangra,Himachal Pradesh,31.893357,76.119318
177114,Paisa BO,Kangra,Himachal Pradesh,31.890482,76.248738
177117,Dhawala BO,Kangra,Himachal Pradesh,31.878018,76.250084
177118,Bahanwin SO,Hamirpur,Himachal Pradesh,31.6867222,76.4282222
177119,Samman Kothi BO,Hamirpur,Himachal Pradesh,31.5455,76.52
177201,Kaloh BO,Una,Himachal Pradesh,31.642301,76.049984
177202,Mubarikpur SO,Una,Himachal Pradesh,31.7093056,76.0872778
177203,Kataur Khurd BO,Una,Himachal Pradesh,31.659403,76.118647
177204,Amboa BO,Una,Himachal Pradesh,31.713143,76.022919
177205,Ambota SO,Una,Himachal Pradesh,31.501,76.5299167
177206,Kuthera Jaswalan BO,Una,Himachal Pradesh,31.607601,76.116393
177207,Ispur BO,Una,Himachal Pradesh,31.503034,76.179563
177208,Panjawar SO,Una,Himachal Pradesh,31.5488611,76.1536944
177209,Kanger BO,Una,Himachal Pradesh,31.445947,76.216288
177210,Chaksarai BO,Una,Himachal Pradesh,31.6527972,76.1409405
177211,Churru BO,Una,Himachal Pradesh,31.5925925,76.1578134
177212,Nangal Jarialan BO,Una,Himachal Pradesh,31.468445,76.270775
177213,Nakroh BO,Una,Himachal Pradesh,31.468445,76.270775
177219,Kuneran BO,Una,Himachal Pradesh,31.7003174,76.0658492
177220,Palakwah BO,Una,Himachal Pradesh,31.396052,76.249443
177301,Jhalan BO,Hamirpur,Himachal Pradesh,31.6995,76.3534
177401,Dhanwin BO,Hamirpur,Himachal Pradesh,31.6134,76.5957
177501,Aman BO,Hamirpur,Himachal Pradesh,31.6458,76.6141
177601,Chamboh BO,Hamirpur,Himachal Pradesh,31.6944,76.679
180001,Jammu HO,Jammu,Jammu And Kashmir,32.6984722,74.8575833
180002,Govind Nagar BO,Jammu,Jammu And Kashmir,32.689298,74.882685
180003,Makwal BO,Jammu,Jammu And Kashmir,32.521456,75.012015
180004,Guru Nanak Nagar SO Jammu,Jammu,Jammu And Kashmir,32.694451,74.865495
180005,Kotli Colony SO,Jammu,Jammu And Kashmir,32.7429444,74.8504444
180006,New University Campus SO,Jammu,Jammu And Kashmir,32.71937,74.868063
180007,Janipur High Court SO,Jammu,Jammu And Kashmir,32.759565,74.856102
180009,SKUASTCHATHA SO,Jammu,Jammu And Kashmir,32.652915,74.807113
180010,Gangyal SO,Jammu,Jammu And Kashmir,32.668291,74.866795
180011,Greater Kailash SO,Jammu,Jammu And Kashmir,32.664803,74.894569
180012,UCHAPIND BO,Kathua,Jammu And Kashmir,31.18301,75.710254
180013,Roopnagar Jammu Tawi SO,Jammu,Jammu And Kashmir,32.772311,74.839821
180015,Chani Himat SO,Jammu,Jammu And Kashmir,32.692392,74.894569
180016,Vinaik Bazar SO,Jammu,Jammu And Kashmir,32.730512,74.867495
180017,Kana Chirgal BO,Jammu,Jammu And Kashmir,32.736056,74.923561
180018,Udheywala SO,Jammu,Jammu And Kashmir,32.743578,74.811964
180019,Sidhra Housing colony,Jammu,Jammu And Kashmir,32.72965,74.80659
180020,TRIKUTA NAGAR,Jammu,Jammu And Kashmir,32.69575,74.87556
181101,Bhour Camp BO,Jammu,Jammu And Kashmir,32.460162,74.202998
181102,Jassore BO,Jammu,Jammu And Kashmir,32.163401,75.218166
181111,Goondla BO,Jammu,Jammu And Kashmir,32.50219,74.172563
181121,AGOffice BO,Jammu,Jammu And Kashmir,32.737376,74.837857
181122,Bhalwal SO,Jammu,Jammu And Kashmir,32.80948,74.768445
181123,Bantalab SO,Jammu,Jammu And Kashmir,32.78435,74.823703
181124,Bsf Camp Paloura SO,Jammu,Jammu And Kashmir,32.750648,74.820327
181131,Sai Kalan BO,Jammu,Jammu And Kashmir,24.680811,73.20281
181132,Deoli BO,Jammu,Jammu And Kashmir,25.758218,75.381816
181133,Tarore BO,Samba,Jammu And Kashmir,32.54154,74.265145
181141,Chak Chimna BO,Jammu,Jammu And Kashmir,32.135477,75.612079
181143,Rajinderpura BO,Samba,Jammu And Kashmir,32.266851,74.596705
181145,Utter Behni BO,Samba,Jammu And Kashmir,32.621584,75.003625
181152,Bathindi SO,Jammu,Jammu And Kashmir,32.710377,74.906262
181201,Gandharwan BO,Jammu,Jammu And Kashmir,32.495634,74.344522
181202,Chak Kirpalpur BO,Jammu,Jammu And Kashmir,31.200029,75.71825
181203,Khour SO,Jammu,Jammu And Kashmir,32.602517,74.808422
181204,Bardoh BO,Jammu,Jammu And Kashmir,32.826924,74.352691
181205,Muthi SO,Jammu,Jammu And Kashmir,34.75832,74.814157
181206,Kanachak BO,Jammu,Jammu And Kashmir,32.723342,74.562427
181207,Gura Manhasan BO,Jammu,Jammu And Kashmir,32.798208,74.603442
181221,Shiba BO,Jammu,Jammu And Kashmir,32.725462,74.654205
181224,Kothar BO,Jammu,Jammu And Kashmir,32.462436,75.126321
182101,Rathian BO,Udhampur,Jammu And Kashmir,1.0,1.0
182104,PTC Udhampur SO,Udhampur,Jammu And Kashmir,32.9095278,75.1062222
182121,Seen Thakrian BO,Udhampur,Jammu And Kashmir,1.0,1.0
182122,Jandrari BO,Udhampur,Jammu And Kashmir,1.0,1.0
182124,Kaldi BO,Udhampur,Jammu And Kashmir,1.0,1.0
182125,Panjar BO,Udhampur,Jammu And Kashmir,1.0,1.0
182126,Kaghote BO,Udhampur,Jammu And Kashmir,1.0,1.0
182127,Khoon BO,Udhampur,Jammu And Kashmir,1.0,1.0
182128,Keya BO,Udhampur,Jammu And Kashmir,1.0,1.0
182141,Nagulta BO,Udhampur,Jammu And Kashmir,1.0,1.0
182142,Madha BO,Udhampur,Jammu And Kashmir,1.0,1.0
182143,Assar BO,Doda,Jammu And Kashmir,1.0,1.0
182144,Sangaldhan BO,Ramban,Jammu And Kashmir,1.0,1.0
182145,Pogal BO,Ramban,Jammu And Kashmir,1.0,1.0
182146,Chambalwas BO,Ramban,Jammu And Kashmir,1.0,1.0
182147,Mundhar BO,Doda,Jammu And Kashmir,1.0,1.0
182148,Bhartund BO,Ramban,Jammu And Kashmir,1.0,1.0
182161,Bapp BO,Udhampur,Jammu And Kashmir,1.0,1.0
182201,Jogote BO,Doda,Jammu And Kashmir,1.0,1.0
182202,Gundna BO,Doda,Jammu And Kashmir,1.0,1.0
182203,Chunri BO,Doda,Jammu And Kashmir,1.0,1.0
182204,Galhar BO,Kishtwar,Jammu And Kashmir,1.0,1.0
182205,Aftee BO,Kishtwar,Jammu And Kashmir,1.0,1.0
182206,Dul Hasti Project SO,Kishtwar,Jammu And Kashmir,33.1844,75.4639
182207,GANDOH SO,Doda,Jammu And Kashmir,33.1353,75.5175
182221,Chattarsori BO,Doda,Jammu And Kashmir,1.0,1.0
182222,Sungli Sartingal BO,Doda,Jammu And Kashmir,1.0,1.0
182301,Nomain BO,Reasi,Jammu And Kashmir,1.0,1.0
182311,Vijaypur BO,Reasi,Jammu And Kashmir,1.0,1.0
182312,Salal BO,Reasi,Jammu And Kashmir,1.0,1.0
182313,Darmari BO,Reasi,Jammu And Kashmir,1.0,1.0
182315,Sarh BO,Reasi,Jammu And Kashmir,1.0,1.0
182320,SMVDU SO,Reasi,Jammu And Kashmir,32.9408888,74.9548333
184101,Kathua HO,Kathua,Jammu And Kashmir,32.3673333,75.5223333
184102,Mehtabpur BO,Kathua,Jammu And Kashmir,31.205862,76.168954
184104,Changran BO,Kathua,Jammu And Kashmir,32.369409,75.493456
184120,Chak Salaria BO,Samba,Jammu And Kashmir,32.509234,74.966175
184121,Kakrai BO,Udhampur,Jammu And Kashmir,28.057821,75.930356
184141,Said BO,Kathua,Jammu And Kashmir,32.336247,74.178972
184142,Garha Satura BO,Kathua,Jammu And Kashmir,32.029872,74.069201
184143,Jasrota BO,Kathua,Jammu And Kashmir,32.050992,75.326145
184144,Maghloor BO,Kathua,Jammu And Kashmir,31.025486,76.021545
184145,Rajpura SO Kathua,Kathua,Jammu And Kashmir,32.485561,75.182262
184148,Chakra BO,Kathua,Jammu And Kashmir,32.236241,74.842434
184151,Parole SO,Kathua,Jammu And Kashmir,32.326932,75.459516
184152,Mah BO,Kathua,Jammu And Kashmir,32.289111,75.063622
184201,Sananghat BO,Kathua,Jammu And Kashmir,32.021546,75.230125
184202,Marapatti BO,Kathua,Jammu And Kashmir,31.065721,74.363921
184203,KishanpurII BO,Kathua,Jammu And Kashmir,31.278304,75.74151
184204,Malhar BO,Kathua,Jammu And Kashmir,21.896596,82.2855485
184205,Sundla BO,Udhampur,Jammu And Kashmir,32.604753,75.288737
184206,Gitti BO,Kathua,Jammu And Kashmir,22.287929,114.151898
185101,Nangali Sahib BO,Poonch,Jammu And Kashmir,1.0,1.0
185102,Palera BO,Poonch,Jammu And Kashmir,1.0,1.0
185121,Sangiote BO,Poonch,Jammu And Kashmir,1.0,1.0
185131,Gambir Brahmana BO,Rajouri,Jammu And Kashmir,1.0,1.0
185132,Chambitrar BO,Rajouri,Jammu And Kashmir,1.0,1.0
185133,Dhani Dhar BO,Rajouri,Jammu And Kashmir,33.375711,74.6178268
185135,Raikban BO,Rajouri,Jammu And Kashmir,1.0,1.0
185151,Kheri BO,Rajouri,Jammu And Kashmir,1.0,1.0
185152,Thanda Pani BO,Rajouri,Jammu And Kashmir,1.0,1.0
185153,Bhajwal BO,Rajouri,Jammu And Kashmir,1.0,1.0
185154,Dhana Dhanean BO,Jammu,Jammu And Kashmir,32.695423,74.254605
185155,Laroka BO,Rajouri,Jammu And Kashmir,1.0,1.0
185156,Tilla Tanda BO,Rajouri,Jammu And Kashmir,1.0,1.0
185201,Tareru BO,Rajouri,Jammu And Kashmir,1.0,1.0
185202,Tatapani BO,Rajouri,Jammu And Kashmir,1.0,1.0
185203,Gelhan BO,Rajouri,Jammu And Kashmir,1.0,1.0
185211,Ari BO,Poonch,Jammu And Kashmir,1.0,1.0
185212,Bhattian BO,Rajouri,Jammu And Kashmir,1.0,1.0
185233,Kewal BO,Rajouri,Jammu And Kashmir,1.0,1.0
185234,Ujjan BO,Rajouri,Jammu And Kashmir,1.0,1.0
190001,Lal Chowk SO,Srinagar,Jammu And Kashmir,34.0716944,74.8106111
190002,Safukadul SO,Srinagar,Jammu And Kashmir,2.5,3.6
190003,Khanyar SO,Srinagar,Jammu And Kashmir,34.0733056,74.8165556
190004,Batwara SO,Srinagar,Jammu And Kashmir,34.0639722,74.8484166
190005,Sanat Nagar SO,Srinagar,Jammu And Kashmir,34.0343333,74.8004722
190006,Basurbagh BO,Srinagar,Jammu And Kashmir,34.121514,74.886698
190007,Sk Airport SO,Budgam,Jammu And Kashmir,33.9998889,74.7688889
190008,Jawahar Nagar,Srinagar,Jammu And Kashmir,34.0579,74.8167
190009,Central Market SO,Srinagar,Jammu And Kashmir,34.0709444,74.8016111
190010,Karan Nagar SO Srinagar,Srinagar,Jammu And Kashmir,34.061257,74.817321
190011,Noushara SO,Srinagar,Jammu And Kashmir,34.0733056,74.8165556
190012,Zainakote SO,Srinagar,Jammu And Kashmir,34.1009722,74.7345556
190014,Hyderpora SO,Budgam,Jammu And Kashmir,34.0376694,74.7871666
190015,Nowgam SO,Srinagar,Jammu And Kashmir,34.0299167,74.8225278
190017,Bashipora BO,Srinagar,Jammu And Kashmir,34.076749,74.628679
190018,Sebdan BO,Budgam,Jammu And Kashmir,34.044837,74.731965
190019,Bagh Mehtab SO,Srinagar,Jammu And Kashmir,34.0165,74.8125278
190020,Bachpora SO,Srinagar,Jammu And Kashmir,34.1529167,74.8017222
190021,Hamhama SO,Budgam,Jammu And Kashmir,34.0213056,74.7696944
190023,Lal Bazar SO,Srinagar,Jammu And Kashmir,34.061257,74.817321
190024,Zakoora,Srinagar,Jammu And Kashmir,34.1642778,74.8303611
190025,Skuast SO,Srinagar,Jammu And Kashmir,34.1425901,74.8607518
191101,Pantha Chowk SO,Srinagar,Jammu And Kashmir,34.0428889,74.8928889
191102,Wuyan SO,Pulwama,Jammu And Kashmir,34.0263611,74.96675
191103,Zantrag BO,Pulwama,Jammu And Kashmir,32.5,23.6
191111,Shogapora BO,Budgam,Jammu And Kashmir,32.5,12.5
191112,Charsharief SO,Budgam,Jammu And Kashmir,33.8614722,74.7669444
191113,Gogjipathri BO,Budgam,Jammu And Kashmir,32.5,36.5
191121,Brein,Srinagar,Jammu And Kashmir,34.08,74.82
191131,Wakura BO,Ganderbal,Jammu And Kashmir,34.209459,74.694199
191132,Rangreth SO,Budgam,Jammu And Kashmir,34.0045833,74.7947778
191201,Daderhama BO,Ganderbal,Jammu And Kashmir,34.216496,74.771943
191202,Hari Gaiwan BO,Ganderbal,Jammu And Kashmir,32.5,25.9
192101,Anantnag HO,Anantnag,Jammu And Kashmir,33.7308611,75.1501944
192121,Pampore SO,Pulwama,Jammu And Kashmir,34.0421944,74.8953333
192122,Gouripora BO,Pulwama,Jammu And Kashmir,2.5,32.5
192123,Aripal BO,Pulwama,Jammu And Kashmir,32.5,32.6
192124,Kanilwan BO,Anantnag,Jammu And Kashmir,32.5,26.5
192125,Martand SO,Anantnag,Jammu And Kashmir,33.75975,75.2766944
192126,Phalgam SO,Anantnag,Jammu And Kashmir,34.0335,75.3235277
192129,Hapatnar BO,Anantnag,Jammu And Kashmir,33.74565,75.220421
192201,Omanagri BO,Anantnag,Jammu And Kashmir,32.5,25.6
192202,Kokarnag SO,Anantnag,Jammu And Kashmir,33.5914444,75.2932222
192210,Larkipora BO,Anantnag,Jammu And Kashmir,33.645327,75.173508
192211,Kriri Nowpora BO,Anantnag,Jammu And Kashmir,32.5,12.5
192212,Batagund BO,Anantnag,Jammu And Kashmir,33.519675,75.273586
192221,Yarkhoshipora BO,Anantnag,Jammu And Kashmir,32.5,2.5
192231,Kulgam SO,Kulgam,Jammu And Kashmir,33.6451389,75.0185278
192232,Turigam Devgubh BO,Kulgam,Jammu And Kashmir,33.708355,74.999556
192233,Nehama BO,Kulgam,Jammu And Kashmir,32.5,21.5
192301,Bandzoo BO,Pulwama,Jammu And Kashmir,23.6542,7254.2
192302,Turkoo Babuar BO,Pulwama,Jammu And Kashmir,12.5,21.5
192303,Saidpora BO,Shopian,Jammu And Kashmir,2.5,32.5
192304,Ratnipora BO,Pulwama,Jammu And Kashmir,33.920852,74.943838
192305,Achan SO,Pulwama,Jammu And Kashmir,33.8054167,74.9650833
192306,Klampora BO,Pulwama,Jammu And Kashmir,33.808403,74.833124
192401,Sirhama BO,Anantnag,Jammu And Kashmir,2.6,32.8
193101,Laridora B.O,Baramulla,Jammu And Kashmir,34.14,74.02
193103,Khawaja Bagh S.O,Baramulla,Jammu And Kashmir,34.21380556,74.37202778
193108,Tilgam B.O,Baramulla,Jammu And Kashmir,34.152188,74.484673
193109,Khaitangan B.O,Baramulla,Jammu And Kashmir,34.156004,74.420282
193121,Matipora B.O,Baramulla,Jammu And Kashmir,34.022981,74.617017
193122,Nowshera B.O,Baramulla,Jammu And Kashmir,34.009492,71.992637
193123,Dachi B.O,Baramulla,Jammu And Kashmir,34.074157,74.0444825
193201,Dooru B.O,Baramulla,Jammu And Kashmir,34.045978,74.733024
193221,Shilhal B.O,Kupwara,Jammu And Kashmir,34.4,74.72
193222,Kupwara S.O,Kupwara,Jammu And Kashmir,34.10113889,74.77138889
193223,Krusan B.O,Kupwara,Jammu And Kashmir,34.07,74.72
193224,Chowkibal Reddy B.O,Kupwara,Jammu And Kashmir,34.411142,73.958025
193225,Tangdhar S.O,Kupwara,Jammu And Kashmir,34.2955,74.2236
193301,Shitloo B.O,Baramulla,Jammu And Kashmir,34.251272,74.207461
193302,Yunis Wahipora B.O,Kupwara,Jammu And Kashmir,34.27,74.3
193303,Rengpeth B.O,Kupwara,Jammu And Kashmir,34.31,74.32
193401,Aripanthan BO,Budgam,Jammu And Kashmir,34.058719,74.578141
193402,Tangmarg SO,Baramulla,Jammu And Kashmir,34.0561667,74.4664444
193403,Gulmarg SO,Baramulla,Jammu And Kashmir,34.031827,74.235936
193404,Chandil Wanigam BO,Baramulla,Jammu And Kashmir,34.043649,74.485775
193411,Beerwah SO,Budgam,Jammu And Kashmir,34.0149722,75.5905
193501,Panzinara B.O,Srinagar,Jammu And Kashmir,34.160076,74.691905
193502,Ajas B.O,Bandipora,Jammu And Kashmir,34.33592,74.678599
193503,Gurez S.O,Bandipora,Jammu And Kashmir,34.205,74.3504167
193504,Asham B.O,Bandipora,Jammu And Kashmir,34.255918,74.637138
193505,Aloosa S.O,Bandipora,Jammu And Kashmir,34.205,74.3504167
194101,Leh H.O,Leh Ladakh,Ladakh,34.152838,77.577038
194102,Drass S.O,Kargil,Ladakh,34.553506,76.135043
194103,Kargil S.O,Kargil,Ladakh,34.553506,76.135043
194104,Chuglamsar S.O,Leh Ladakh,Ladakh,34.152838,77.577038
194105,Baroo S.O,Kargil,Ladakh,34.553506,76.135043
194106,Khalsi S.O,Leh Ladakh,Ladakh,34.152838,77.577038
194107,LIKIR B.O,Leh Ladakh,Ladakh,34.29032,77.213211
194109,KHANGRAL B.O,Kargil,Ladakh,34.371914,76.532927
194201,Thiksay S.O,Leh Ladakh,Ladakh,34.152838,77.577038
194202,NYOMA MUD,Leh Ladakh,Ladakh,33.205916,78.648384
194301,Sankoo S.O,Kargil,Ladakh,34.553506,76.135043
194302,CHA LUNGNAK B.O,Kargil,Ladakh,33.462801,76.878582
194303,Panikhar S.O,Kargil,Ladakh,34.553506,76.135043
194401,Diskit S.O,Leh Ladakh,Ladakh,34.152838,77.577038
194402,Saspol S.O,Leh Ladakh,Ladakh,34.152838,77.577038
194404,Nyoma Mud S.O,Leh Ladakh,Ladakh,34.152838,77.577038
201001,NDC Ghaziabad,Ghaziabad,Uttar Pradesh,28.6556,77.4277
201002,Shahpur Bamheta BO,Ghaziabad,Uttar Pradesh,28.649885,77.483103
201003,Meerut Road SO,Ghaziabad,Uttar Pradesh,28.6829167,77.4140556
201004,Hindon Air Field SO,Ghaziabad,Uttar Pradesh,28.6920556,77.4503333
201005,Sahibabad SO,Ghaziabad,Uttar Pradesh,28.6760556,77.3689167
201006,Chikamberpur SO,Ghaziabad,Uttar Pradesh,28.677412,77.325981
201007,Mohan Nagar SO,Ghaziabad,Uttar Pradesh,28.6681111,77.4284722
201008,Vidyut Nagar SO,Gautam Buddha Nagar,Uttar Pradesh,23.6587,78.95467
201009,Roja Yakoobpur BO,Ghaziabad,Uttar Pradesh,28.603403,77.461592
201010,Kaushambi SO,Ghaziabad,Uttar Pradesh,28.6399722,77.32975
201011,Chandra Nagar SO,Ghaziabad,Uttar Pradesh,28.664917,77.330289
201012,Vasundhra SO,Ghaziabad,Uttar Pradesh,28.6532778,77.3566944
201013,Govindpuram SO,Ghaziabad,Uttar Pradesh,28.6837778,77.4854167
201014,Shipra Sun City SO,Ghaziabad,Uttar Pradesh,28.6681111,77.4284722
201015,Udai Rampur Nangla BO,Hapur,Uttar Pradesh,28.637565,77.582001
201016,Crossings Republik SO,Ghaziabad,Uttar Pradesh,28.629409,77.432905
201017,Raj Nagar Extension SO,Ghaziabad,Uttar Pradesh,28.6681111,77.4284722
201018,Model Town SO,Ghaziabad,Uttar Pradesh,28.651964,77.436632
201019,Vaishali SO,Ghaziabad,Uttar Pradesh,28.6681111,77.4284722
201020,Khora SO,Ghaziabad,Uttar Pradesh,28.6845277,77.4459166
201021,Abhay Khand 03 SO,Ghaziabad,Uttar Pradesh,28.63408,77.345364
201102,Jaoli BO,Ghaziabad,Uttar Pradesh,28.669156,77.453758
201103,Tronica City SO,Ghaziabad,Uttar Pradesh,28.7803611,77.2674722
201201,Harmukhpuri SO,Ghaziabad,Uttar Pradesh,24.578542,78.546217
201204,Nagla Akhu BO,Ghaziabad,Uttar Pradesh,28.727872,77.404928
201206,Murad Nagar SO,Ghaziabad,Uttar Pradesh,28.6681111,77.4284722
201301,Sec 16 Noida SO,Gautam Buddha Nagar,Uttar Pradesh,21.54786,77.856245
201302,NDC Noida,Gautam Buddha Nagar,Uttar Pradesh,28.5787,77.3134
201303,Sector 30 Noida SO,Gautam Buddha Nagar,Uttar Pradesh,23.1564,78.5469
201304,Maharshi Nagar SO,Gautam Buddha Nagar,Uttar Pradesh,23.65148,78.54962
201305,NEPZ SO,Gautam Buddha Nagar,Uttar Pradesh,21.35849,78.546832
201306,IA Surajpur SO,Gautam Buddha Nagar,Uttar Pradesh,23.15684,78.524163
201307,Sec 12 Noida SO,Gautam Buddha Nagar,Uttar Pradesh,23.15684,78.594264
201309,Sec62 Noida SO,Gautam Buddha Nagar,Uttar Pradesh,23.54897,78.54962
201310,Knowledge ParkI SO,Gautam Buddha Nagar,Uttar Pradesh,24.16587,78.5412658
201311,Container Depot SO,Gautam Buddha Nagar,Uttar Pradesh,25.46123,78.54897
201312,Gautam Budh University SO,Gautam Buddha Nagar,Uttar Pradesh,23.5614,78.45986
201313,Amity university SO,Gautam Buddha Nagar,Uttar Pradesh,25.648745,77.8542698
201314,Luharli BO,Gautam Buddha Nagar,Uttar Pradesh,28.490659,77.623541
201315,Gurjinder Vihar SO,Gautam Buddha Nagar,Uttar Pradesh,45.9874534,27.321466
201316,Sec 122 Noida SO,Gautam Buddha Nagar,Uttar Pradesh,45.4462114,23.456644
201317,Sec 128 Noida SO,Gautam Buddha Nagar,Uttar Pradesh,45.4654414,22.4564454
201318,Sec 01 Greater Noida SO,Gautam Buddha Nagar,Uttar Pradesh,28.6681111,77.4284722
202001,Kutchery SO Aligarh,Aligarh,Uttar Pradesh,14.9092501,77.9959291
202002,Aisi BO,Aligarh,Uttar Pradesh,27.8003855,78.0430817
202121,Akrabad S.O,Aligarh,Uttar Pradesh,27.4819,78.1615
202122,Aligarh Dairy Farm S.O,Aligarh,Uttar Pradesh,27.9375,78.0818
202123,Paindapur BO,Aligarh,Uttar Pradesh,26.0592876,82.9971909
202124,Kajrauth BO,Aligarh,Uttar Pradesh,27.6843526,77.9545906
202125,Gurushikharan BO,Aligarh,Uttar Pradesh,24.665278,72.781944
202126,Sumera BO,Aligarh,Uttar Pradesh,27.981195,
202127,Satha BO,Aligarh,Uttar Pradesh,27.9783178,78.1120078
202128,Changeri BO,Aligarh,Uttar Pradesh,27.86684,78.2518863
202129,Hasona Jagmohanpur BO,Aligarh,Uttar Pradesh,27.8345147,78.3721344
202130,Bhikampur BO,Aligarh,Uttar Pradesh,27.8788112,78.0835696
202131,Bijauli S.O,Aligarh,Uttar Pradesh,27.373,77.5342
202132,Chandaus S.O,Aligarh,Uttar Pradesh,27.9001111,78.0728333
202133,Rajmau BO,Aligarh,Uttar Pradesh,27.9148998,78.5028963
202134,Badhari Bujurg BO,Aligarh,Uttar Pradesh,27.8153511,78.4872706
202135,Khera Sattu BO,Aligarh,Uttar Pradesh,25.028086,73.9176974
202136,Kandauli BO,Aligarh,Uttar Pradesh,27.9079413,78.0766036
202137,Hetalpur BO,Aligarh,Uttar Pradesh,28.0072778,77.6283746
202138,Bamani BO,Aligarh,Uttar Pradesh,27.8628973,78.4386022
202139,Komari BO,Hathras,Uttar Pradesh,17.2008563,76.5372625
202140,Ismailpur BO,Aligarh,Uttar Pradesh,25.7582519,85.1919952
202141,Dayal Nagar SO,Aligarh,Uttar Pradesh,27.9001111,78.0728333
202142,Udaipur BO,Aligarh,Uttar Pradesh,28.0197488,77.9053182
202143,Somna SO,Aligarh,Uttar Pradesh,28.0325,77.562
202145,Sathini BO,Aligarh,Uttar Pradesh,27.6034066,77.871743
202146,Mangalayatan University SO,Aligarh,Uttar Pradesh,27.9001111,78.0728333
202150,Palirajapur SO,Aligarh,Uttar Pradesh,27.3914,78.2218
202155,Madha Habibpur BO,Aligarh,Uttar Pradesh,23.0915364,88.4730865
202165,Utasani BO,Aligarh,Uttar Pradesh,27.9261805,77.6125909
202170,Chhonk BO,Aligarh,Uttar Pradesh,27.6719182,78.219132
202280,Ghazipur BO,Aligarh,Uttar Pradesh,25.7197495,83.8251247
202281,J D Singh SO,Aligarh,Uttar Pradesh,27.5201,78.032
202282,Kazimabad BO,Aligarh,Uttar Pradesh,24.9105443,67.1857249
203001,Dariyapur BO,Hathras,Uttar Pradesh,27.6530262,78.1378503
